     3.02           OBSERVATION DATA    M (MIXED)           RINEX VERSION / TYPE
NetR9 5.54          Receiver Operator   20250311 110426 UTC PGM / RUN BY / DATE
JNAV00VNM                                                   MARKER NAME
JNAV00VNM                                                   MARKER NUMBER
GEODETIC                                                    MARKER TYPE         
NAVIS               HUST                                    OBSERVER / AGENCY   
5426R48968          TRIMBLE NETR9       5.54                REC # / TYPE / VERS
                    TRM57971.00     NONE                    ANT # / TYPE
 -1626584.7059  5730519.4577  2271864.3917                  APPROX POSITION XYZ
        0.0000        0.0000        0.0000                  ANTENNA: DELTA H/E/N
G   12 C1C L1C S1C C2W L2W S2W C2X L2X S2X C5X L5X S5X      SYS / # / OBS TYPES
     1.000                                                  INTERVAL
  2025     3    11    11     4   26.0000000     GPS         TIME OF FIRST OBS
G L2X -0.25000                                              SYS / PHASE SHIFT   
R L1P  0.25000                                              SYS / PHASE SHIFT   
R L2C -0.25000                                              SYS / PHASE SHIFT   
J L2X  0.25000                                              SYS / PHASE SHIFT   
DBHZ                                                        SIGNAL STRENGTH UNIT
                                                            GLONASS COD/PHS/BIS 
                                                            END OF HEADER       
> 2025  3 11 11  4 26.0000000  0 12       -.000176313000
G05  21121943.648 7 110996768.81417        47.200    21121961.434 7  86491130.26417        46.500    21121961.516 7  86491043.25817        47.200
G19  21727214.859 7 114177559.83617        42.600    21727234.160 5  88969493.29915        31.200
G20  20583791.117 7 108168859.45917        47.100    20583804.109 6  84287516.75416        39.600
G17  24135431.016 5 126832517.82915        34.300    24135453.035 4  98830650.37814        25.600    24135452.230 6  98830587.35316        38.300
G12  21916687.547 7 115172963.69017        45.800    21916706.340 7  89745283.75117        43.300    21916705.977 7  89745236.74817        45.000
G06  22780231.617 6 119711104.33516        39.500    22780249.234 6  93281530.68616        36.100    22780248.906 7  93281438.67217        42.400    22780251.961 7  89394744.16417        47.300
G09  24512198.242 5 128812493.41115        31.900    24512215.840 4 100373784.51614        24.200    24512215.344 6 100373669.51916        36.600    24512216.867 6  96191495.89816        39.200
G22  25169627.633 4 132267290.07014        29.900
G13  23216474.094 6 122003569.49316        37.600    23216495.188 3  95067693.30713        20.900
G25  23428552.391 6 123117876.12116        38.100    23428573.660 5  95936081.28115        30.400    23428573.664 6  95936006.27316        38.600    23428576.973 7  91938635.68917        45.000
G15  25398904.773 5 133472186.54415        33.800    25398927.191 3 104004414.80113        22.200    25398926.293 5 104004330.75715        34.000
G11  21842867.539 7 114785245.77617        45.800    21842880.859 5  89443219.36615        34.700    21842880.262 7  89443142.36317        47.800    21842885.730 8  85716402.25118        51.000
> 2025  3 11 11  4 27.0000000  0 12       -.000176554000
G05  21121625.680 7 110995097.072 7        46.800    21121643.359 7  86489827.610 7        46.700    21121643.457 7  86489740.611 7        47.500
G19  21727575.391 7 114179453.221 7        42.600    21727594.379 5  88970968.659 5        31.900
G20  20583893.414 7 108169397.069 7        47.000    20583906.266 6  84287935.674 6        39.700
G17  24135876.313 5 126834860.910 5        34.500    24135898.969 4  98832476.165 4        25.800    24135898.148 6  98832413.176 6        38.100
G12  21916741.969 7 115173248.704 7        45.900    21916760.637 7  89745505.837 7        42.800    21916760.344 7  89745458.833 7        45.000
G06  22780353.258 6 119711745.894 6        39.800    22780371.316 5  93282030.599 5        35.900    22780371.133 7  93281938.596 7        42.800    22780374.082 7  89395223.262 7        47.400
G09  24512567.727 5 128814431.642 5        32.200    24512584.621 4 100375294.833 4        24.200    24512584.348 6 100375179.843 6        36.600    24512585.742 6  96192943.262 6        39.300
G22  25170155.305 4 132270059.792 4        29.400
G13  23215782.852 6 121999938.423 6        37.700    23215804.234 3  95064863.904 3        21.800
G25  23428299.516 6 123116550.651 6        37.800    23428321.488 4  95935048.446 4        29.700    23428321.301 6  95934973.445 6        38.500    23428324.777 7  91937645.889 7        44.900
G15  25398155.000 5 133468243.715 5        33.400    25398176.824 3 104001342.457 3        21.700    25398175.742 5 104001258.466 5        34.000
G11  21842833.352 7 114785065.952 7        45.300    21842846.391 5  89443079.239 5        34.900    21842846.207 7  89443002.238 7        47.900    21842851.563 8  85716267.961 8        51.000
> 2025  3 11 11  4 28.0000000  0 12       -.000176794000
G05  21121307.477 7 110993425.761 7        47.000    21121325.246 7  86488525.294 7        46.700    21121325.434 7  86488438.298 7        47.800
G19  21727935.422 7 114181347.002 7        42.500    21727954.879 5  88972444.328 5        32.600
G20  20583995.609 7 108169934.952 7        47.100    20584008.605 6  84288354.802 6        39.800
G17  24136322.602 5 126837204.206 5        34.800    24136344.715 4  98834302.128 4        25.700    24136344.266 6  98834239.144 6        37.400
G12  21916796.008 7 115173534.226 7        46.100    21916814.938 7  89745728.315 7        43.000    21916814.996 7  89745681.316 7        44.900
G06  22780476.195 6 119712387.394 6        40.100    22780493.316 6  93282530.464 6        36.600    22780493.242 7  93282438.468 7        42.500    22780496.078 7  89395702.307 7        47.200
G09  24512937.664 5 128816370.243 5        32.200    24512953.445 3 100376805.444 3        23.600    24512952.938 6 100376690.441 6        36.300    24512954.570 6  96194390.924 6        38.900
G22  25170681.688 5                        31.200
G13  23215091.305 6 121996307.301 6        38.100    23215113.223 3  95062034.454 3        20.400
G25  23428047.828 6 123115225.710 6        37.700    23428069.316 5  95934016.036 5        30.800    23428069.082 6  95933941.019 6        38.600    23428072.605 7  91936656.477 7        44.500
G15  25397403.859 5 133464300.678 5        33.800    25397426.488 3 103998269.984 3        21.700    25397425.438 5 103998185.982 5        34.200
G11  21842799.055 7 114784886.090 7        45.300    21842812.203 5  89442939.085 5        34.900    21842811.910 7  89442862.084 7        47.700    21842817.309 8  85716133.646 8        50.900
> 2025  3 11 11  4 29.0000000  0 12       -.000177032000
G05  21120989.578 7 110991754.956 7        47.000    21121007.297 7  86487223.376 7        46.800    21121007.418 7  86487136.379 7        47.800
G19  21728296.078 7 114183241.226 7        42.600    21728315.383 5  88973920.343 5        32.100
G20  20584098.391 7 108170473.173 7        47.000    20584111.141 6  84288774.196 6        39.700
G17  24136769.563 5 126839547.819 5        34.900    24136790.695 4  98836128.335 4        26.400    24136790.039 6  98836065.356 6        37.500
G12  21916850.570 7 115173820.339 7        45.800    21916869.289 7  89745951.255 7        42.500    21916869.355 7  89745904.253 7        45.000
G06  22780597.313 6 119713028.912 6        39.900    22780615.305 5  93283030.350 5        35.900    22780615.543 7  93282938.348 7        42.700    22780618.203 7  89396181.355 7        47.100
G09  24513306.969 5 128818309.305 5        31.200    24513322.445 4 100378316.413 4        25.600    24513321.730 6 100378201.394 6        36.100    24513323.395 6  96195838.921 6        39.300
G22  25171208.742 5                        30.700
G13  23214401.258 6 121992676.178 6        37.700    23214422.059 3  95059204.992 3        20.900
G25  23427795.656 6 123113901.319 6        37.700    23427817.461 5  95932984.035 5        30.700    23427816.941 6  95932909.024 6        38.500    23427820.605 7  91935667.483 7        44.700
G15  25396653.758 5 133460357.494 5        34.000    25396676.129 3 103995197.382 3        21.800    25396675.453 5 103995113.386 5        34.000
G11  21842764.734 7 114784706.253 7        45.400    21842777.945 5  89442798.951 5        34.900    21842777.953 8  89442721.952 8        48.100    21842783.043 8  85715999.352 8        50.800
> 2025  3 11 11  4 30.0000000  0 12       -.000177273000
G05  21120671.609 7 110990084.623 7        47.000    21120689.473 7  86485921.822 7        46.600    21120689.520 7  86485834.823 7        47.900
G19  21728656.484 7 114185135.888 7        42.500    21728675.957 5  88975396.694 5        32.600
G20  20584200.656 7 108171011.713 7        47.200    20584213.582 6  84289193.839 6        39.800
G17  24137215.680 5 126841891.689 5        34.800    24137236.734 4  98837954.755 4        27.400    24137235.598 6  98837891.762 6        37.800
G12  21916905.578 7 115174107.010 7        46.000    21916923.918 7  89746174.633 7        43.000    21916923.672 7  89746127.635 7        45.100
G06  22780719.320 6 119713670.402 6        40.000    22780737.402 5  93283530.204 5        35.200    22780737.496 7  93283438.208 7        42.600    22780740.277 7  89396660.389 7        47.100
G09  24513675.805 5 128820248.747 5        31.800    24513691.473 4 100379827.651 4        24.100    24513690.234 5 100379712.661 5        35.800    24513692.668 6  96197287.222 6        39.100
G22  25171734.977 5 132278367.954 5        31.200
G13  23213709.039 6 121989045.027 6        37.900    23213731.027 3  95056375.537 3        20.600
G25  23427544.328 6 123112577.496 6        37.800    23427565.613 5  95931952.473 5        30.000    23427565.320 6  95931877.465 6        38.500    23427568.680 7  91934678.902 7        44.900
G15  25395902.711 5 133456414.139 5        33.700    25395925.699 3 103992124.665 3        21.500    25395925.055 5 103992040.680 5        33.900
G11  21842731.078 7 114784526.427 7        45.900    21842743.832 5  89442658.826 5        34.800    21842743.793 7  89442581.823 7        47.900    21842748.871 8  85715865.065 8        50.800
> 2025  3 11 11  4 31.0000000  0 12       -.000177513000
G05  21120353.945 7 110988414.818 7        47.000    21120371.762 7  86484620.681 7        46.700    21120371.723 7  86484533.680 7        47.800
G19  21729017.344 7 114187031.039 7        43.100    21729036.715 5  88976873.433 5        32.300
G20  20584303.297 7 108171550.631 7        47.100    20584316.109 6  84289613.776 6        40.100
G17  24137661.625 5 126844235.886 5        35.200    24137682.840 4  98839781.424 4        27.100    24137681.668 6  98839718.434 6        37.800
G12  21916960.289 7 115174394.321 7        45.600    21916978.645 7  89746398.509 7        43.000    21916978.379 7  89746351.506 7        44.900
G06  22780842.148 6 119714311.940 6        40.100    22780859.336 5  93284030.097 5        35.800    22780859.613 7  93283938.109 7        42.700    22780862.324 7  89397139.456 7        47.000
G09  24514044.734 5 128822188.674 5        31.800    24514060.668 4 100381339.293 4        24.900    24514059.328 5 100381224.294 5        35.900    24514061.773 6  96198735.881 6        39.100
G22  25172260.953 5 132281137.074 5        30.500
G13  23213018.328 6 121985413.903 6        37.300    23213040.086 3  95053546.098 3        20.900
G25  23427291.758 6 123111254.261 6        37.700    23427313.754 5  95930921.380 5        30.900    23427313.465 6  95930846.378 6        39.000    23427316.879 7  91933690.774 7        45.100
G15  25395151.289 5 133452470.687 5        33.700    25395175.336 3 103989051.843 3        21.500    25395174.660 5 103988967.850 5        33.700
G11  21842696.719 7 114784346.665 7        45.600    21842709.672 5  89442518.755 5        34.700    21842709.703 8  89442441.751 8        48.000    21842714.664 8  85715730.828 8        50.900
> 2025  3 11 11  4 32.0000000  0 12       -.000177753000
G05  21120036.164 7 110986745.495 7        47.000    21120054.063 7  86483319.914 7        46.500    21120054.000 7  86483232.914 7        47.700
G19  21729378.000 7 114188926.635 7        42.600    21729397.395 5  88978350.519 5        32.300
G20  20584406.016 7 108172089.870 7        47.200    20584418.785 6  84290033.962 6        40.200
G17  24138106.938 5 126846580.362 5        34.800    24138129.027 4  98841608.301 4        27.100    24138128.281 6  98841545.308 6        37.900
G12  21917014.609 7 115174682.192 7        45.800    21917033.344 7  89746622.820 7        42.700    21917033.336 7  89746575.816 7        44.800
G06  22780964.047 6 119714953.479 6        40.000    22780981.492 5  93284530.001 5        35.100    22780982.125 7  93284437.998 7        42.400    22780984.488 7  89397618.518 7        47.100
G09  24514412.461 5 128824129.030 5        31.600    24514429.895 3 100382851.262 3        23.000    24514428.551 5 100382736.276 5        35.200    24514430.988 6  96200184.855 6        39.600
G22  25172788.469 5 132283906.043 5        30.800
G13  23212326.992 6 121981782.767 6        37.600    23212348.922 3  95050716.647 3        20.100
G25  23427040.281 6 123109931.591 6        37.700    23427061.824 5  95929890.712 5        30.600    23427061.809 6  95929815.720 6        38.600    23427065.254 7  91932703.061 7        44.600
G15  25394401.508 5 133448527.060 5        33.300    25394424.871 3 103985978.929 3        20.400    25394424.238 5 103985894.916 5        33.400
G11  21842662.531 7 114784166.921 7        45.500    21842675.449 5  89442378.689 5        34.700    21842675.246 7  89442301.688 7        47.900    21842680.387 8  85715596.600 8        51.000
> 2025  3 11 11  4 33.0000000  0 12       -.000177994000
G05  21119718.695 7 110985076.665 7        47.200    21119736.461 7  86482019.533 7        46.700    21119736.387 7  86481932.533 7        47.800
G19  21729739.070 7 114190822.678 7        42.900    21729758.133 5  88979827.949 5        32.400
G20  20584508.469 7 108172629.438 7        47.000    20584521.492 6  84290454.407 6        39.900
G17  24138553.484 5 126848925.110 5        34.700    24138575.238 4  98843435.404 4        26.400    24138574.813 6  98843372.407 6        37.900
G12  21917069.352 7 115174970.643 7        46.100    21917088.313 7  89746847.583 7        43.000    21917088.160 7  89746800.579 7        44.500
G06  22781086.164 6 119715594.996 6        40.100    22781103.680 5  93285029.873 5        35.400    22781104.172 7  93284937.880 7        42.200    22781106.613 7  89398097.572 7        47.200
G09  24514781.703 5 128826069.813 5        32.200    24514799.125 4 100384363.571 4        25.300    24514798.148 5 100384248.575 5        35.700    24514800.344 6  96201634.146 6        39.700
G22  25173315.273 5 132286674.825 5        31.000
G13  23211636.938 6 121978151.619 6        37.400    23211657.871 3  95047887.179 3        19.600
G25  23426788.867 6 123108609.470 6        37.500    23426810.105 5  95928860.490 5        30.200    23426810.031 6  95928785.488 6        38.700    23426813.652 7  91931715.756 7        44.600
G15  25393652.266 5 133444583.278 5        33.600    25393674.309 3 103982905.836 3        20.400    25393673.258 5 103982821.845 5        32.900
G11  21842628.328 7 114783987.192 7        45.700    21842641.215 5  89442238.637 5        35.100    21842640.941 7  89442161.637 7        47.800    21842646.180 8  85715462.386 8        50.900
> 2025  3 11 11  4 34.0000000  0 12       -.000178234000
G05  21119401.133 7 110983408.285 7        47.000    21119418.992 7  86480719.499 7        46.600    21119418.914 7  86480632.501 7        47.500
G19  21730099.773 7 114192719.141 7        42.900    21730118.855 5  88981305.707 5        32.500
G20  20584611.422 7 108173169.305 7        47.100    20584624.203 6  84290875.082 6        39.900
G17  24138999.273 5 126851270.119 5        34.600    24139021.418 4  98845262.701 4        26.500    24139020.746 6  98845199.703 6        37.500
G12  21917124.633 7 115175259.647 7        46.000    21917143.332 7  89747072.775 7        43.400    21917143.172 7  89747025.771 7        44.600
G06  22781208.164 6 119716236.485 6        40.000    22781225.660 5  93285529.735 5        35.900    22781226.004 7  93285437.734 7        42.100    22781228.625 7  89398576.602 7        46.900
G09  24515151.984 5 128828011.002 5        32.200    24515168.484 3 100385876.195 3        22.000    24515167.172 5 100385761.192 5        35.300    24515169.785 6  96203083.745 6        39.400
G22  25173841.844 5 132289443.429 5        31.200
G13  23210944.430 6 121974520.461 6        37.600    23210966.738 3  95045057.711 3        19.900
G25  23426537.094 6 123107287.891 6        37.900    23426558.602 5  95927830.683 5        30.200    23426558.445 6  95927755.676 6        38.500    23426562.133 7  91930728.853 7        44.900
G15  25392899.977 5 133440639.307 5        33.300    25392923.711 3 103979832.612 3        20.100    25392923.105 5 103979748.641 5        33.200
G11  21842593.414 7 114783807.456 7        45.600    21842606.969 5  89442098.583 5        34.100    21842606.883 8  89442021.581 8        48.200    21842612.035 8  85715328.167 8        50.600
> 2025  3 11 11  4 35.0000000  0 12       -.000178473000
G05  21119083.727 7 110981740.393 7        47.000    21119101.605 7  86479419.848 7        46.300    21119101.500 7  86479332.853 7        47.400
G19  21730460.414 7 114194616.059 7        42.700    21730479.953 5  88982783.821 5        32.700
G20  20584714.344 7 108173709.506 7        47.200    20584727.008 6  84291296.020 6        39.900
G17  24139444.313 5 126853615.398 5        34.500    24139467.637 4  98847090.218 4        24.600    24139467.305 6  98847027.218 6        37.000
G12  21917179.469 7 115175549.227 7        46.100    21917198.398 7  89747298.420 7        42.600    21917198.172 7  89747251.416 7        44.500
G06  22781329.469 6 119716877.971 6        39.900    22781347.816 5  93286029.593 5        35.600    22781348.457 7  93285937.593 7        42.400    22781350.691 7  89399055.632 7        47.000
G09  24515522.563 5 128829952.610 5        32.000    24515537.785 3 100387389.134 3        23.000    24515536.125 5 100387274.145 5        35.300    24515539.336 6  96204533.656 6        39.100
G22  25174367.859 5 132292211.884 5        30.300
G13  23210253.477 6 121970889.281 6        37.600    23210275.855 3  95042228.227 3        19.900
G25  23426285.719 6 123105966.867 6        37.600    23426307.223 5  95926801.309 5        30.800    23426306.840 6  95926726.301 6        38.700    23426310.695 7  91929742.369 7        45.000
G15  25392149.672 5 133436695.191 5        32.800    25392173.070 3 103976759.290 3        19.600    25392172.574 5 103976675.302 5        32.900
G11  21842559.313 7 114783627.739 7        45.600    21842572.930 5  89441958.548 5        34.600    21842572.598 8  89441881.544 8        48.200    21842577.816 8  85715193.963 8        50.800
> 2025  3 11 11  4 36.0000000  0 12       -.000178713000
G05  21118766.734 7 110980073.019 7        47.100    21118784.387 7  86478120.602 7        46.600    21118784.367 7  86478033.604 7        47.300
G19  21730821.156 7 114196513.448 7        42.500    21730841.070 5  88984262.299 5        32.200
G20  20584817.102 7 108174250.059 7        47.200    20584829.828 6  84291717.234 6        39.800
G17  24139891.688 5 126855961.000 5        34.500    24139913.926 4  98848917.979 4        25.600    24139913.281 6  98848854.993 6        36.800
G12  21917234.844 7 115175839.411 7        46.200    21917253.684 7  89747524.529 7        42.600    21917253.582 7  89747477.529 7        44.500
G06  22781452.094 6 119717519.474 6        39.900    22781470.031 5  93286529.463 5        35.700    22781470.332 7  93286437.464 7        42.400    22781472.789 7  89399534.675 7        47.200
G09  24515891.664 5 128831894.684 5        31.800    24515907.203 3 100388902.462 3        23.000    24515905.875 5 100388787.463 5        35.300    24515908.914 6  96205983.915 6        39.200
G22  25174895.781 5 132294980.191 5        31.000
G13  23209562.750 6 121967258.105 6        37.500    23209584.973 3  95039398.739 3        20.600
G25  23426034.656 6 123104646.412 6        37.600    23426055.953 5  95925772.378 5        31.200    23426055.609 6  95925697.377 6        38.700    23426059.469 7  91928756.310 7        45.000
G15  25391398.227 5 133432750.924 5        32.900    25391422.391 3 103973685.835 3        19.600    25391421.773 5 103973601.862 5        32.600
G11  21842525.141 7 114783448.062 7        45.800    21842538.566 5  89441818.536 5        34.400    21842538.496 8  89441741.538 8        48.100    21842543.660 8  85715059.790 8        51.100
> 2025  3 11 11  4 37.0000000  0 12       -.000178953000
G05  21118449.477 7 110978406.051 7        47.000    21118466.988 7  86476821.672 7        46.400    21118467.082 7  86476734.673 7        46.900
G19  21731182.586 7 114198411.200 7        42.600    21731202.199 5  88985741.065 5        31.900
G20  20584920.094 7 108174790.859 7        47.200    20584932.715 6  84292138.640 6        39.800
G17  24140337.719 5 126858306.797 5        34.600    24140360.410 4  98850745.902 4        25.400    24140359.813 6  98850682.902 6        36.800
G12  21917290.195 7 115176130.098 7        45.300    21917308.918 7  89747751.034 7        42.500    21917308.660 7  89747704.029 7        44.400
G06  22781574.875 6 119718160.907 6        39.800    22781592.000 5  93287029.278 5        35.400    22781592.188 7  93286937.274 7        42.400    22781594.891 7  89400013.656 7        46.900
G09  24516261.805 5 128833837.114 5        31.900    24516276.762 3 100390416.040 3        22.900    24516275.871 5 100390301.053 5        35.400    24516278.555 6  96207434.440 6        39.000
G22  25175422.102 5 132297748.275 5        31.200
G13  23208871.992 6 121963626.858 6        37.600    23208893.949 3  95036569.219 3        19.600
G25  23425783.336 6 123103326.445 6        37.700    23425804.719 5  95924743.838 5        31.100    23425804.805 6  95924668.829 6        38.600    23425808.262 7  91927770.618 7        45.100
G15  25390648.117 5 133428806.444 5        33.500    25390671.727 3 103970612.247 3        19.600    25390671.008 5 103970528.245 5        32.500
G11  21842490.930 7 114783268.335 7        46.000    21842504.527 5  89441678.494 5        34.800    21842504.445 8  89441601.488 8        48.200    21842509.496 8  85714925.578 8        50.700
> 2025  3 11 11  4 38.0000000  0 12       -.000179193000
G05  21118132.477 7 110976739.638 7        47.200    21118149.910 7  86475523.173 7        46.600    21118150.371 7  86475436.177 7        47.000
G19  21731544.172 7 114200309.470 7        42.800    21731563.543 5  88987220.233 5        31.900
G20  20585023.164 7 108175332.059 7        47.000    20585035.707 6  84292560.356 6        39.800
G17  24140783.664 5 126860652.937 5        34.700    24140806.730 4  98852574.091 4        26.000    24140806.418 6  98852511.090 6        37.000
G12  21917345.898 7 115176421.423 7        45.600    21917364.422 7  89747978.036 7        42.800    21917364.160 7  89747931.034 7        44.300
G06  22781696.844 6 119718802.389 6        39.900    22781714.078 6  93287529.141 6        36.200    22781714.469 7  93287437.131 7        42.700    22781716.918 7  89400492.686 7        47.000
G09  24516630.828 5 128835780.040 5        32.000    24516646.504 3 100391930.025 3        22.800    24516646.406 5 100391815.016 5        35.100    24516648.207 6  96208885.331 6        38.900
G22  25175949.141 5 132300516.281 5        31.200
G13  23208181.148 6 121959995.686 6        37.900    23208203.066 3  95033739.729 3        20.100
G25  23425532.828 6 123102007.103 6        37.700    23425553.676 5  95923715.776 5        30.400    23425553.863 6  95923640.765 6        38.700    23425557.168 7  91926785.398 7        45.200
G15  25389897.672 5 133424861.859 5        33.000    25389921.152 3 103967538.528 3        18.600    25389920.176 5 103967454.555 5        32.700
G11  21842456.445 7 114783088.694 7        46.200    21842470.297 5  89441538.512 5        34.900    21842470.113 8  89441461.503 8        48.100    21842475.273 8  85714791.427 8        50.600
> 2025  3 11 11  4 39.0000000  0 12       -.000179434000
G05  21117815.477 7 110975073.645 7        46.900    21117832.836 7  86474225.001 7        46.600    21117833.070 7  86474138.001 7        47.200
G19  21731905.492 7 114202208.127 7        42.600    21731924.984 5  88988699.699 5        32.700
G20  20585125.820 7 108175873.519 7        47.100    20585138.672 6  84292982.274 6        39.900
G17  24141231.625 5 126862999.294 5        34.600    24141253.066 4  98854402.447 4        26.000    24141252.609 6  98854339.451 6        37.600
G12  21917401.523 7 115176713.264 7        45.600    21917419.906 7  89748205.441 7        43.000    21917419.738 7  89748158.440 7        44.300
G06  22781818.063 6 119719443.801 6        39.900    22781836.195 5  93288028.932 5        35.800    22781836.484 7  93287936.933 7        42.600    22781839.008 7  89400971.666 7        47.100
G09  24516999.977 5 128837723.325 5        31.900    24517016.344 3 100393444.284 3        23.800    24517016.469 5 100393329.288 5        35.500    24517018.117 6  96210336.497 6        38.700
G22  25176475.203 5 132303284.049 5        30.800
G13  23207490.609 6 121956364.424 6        37.800    23207511.988 3  95030910.155 3        19.300
G25  23425281.570 6 123100688.263 6        37.700    23425302.754 5  95922688.101 5        30.900    23425302.938 6  95922613.093 6        39.000    23425306.227 7  91925800.539 7        45.100
G15  25389147.039 5 133420917.066 5        33.500    25389170.492 3 103964464.689 3        19.000    25389169.535 5 103964380.690 5        32.400
G11  21842423.172 7 114782909.006 7        45.800    21842436.012 5  89441398.495 5        35.200    21842435.910 8  89441321.487 8        48.600    21842441.094 8  85714657.242 8        50.500
> 2025  3 11 11  4 40.0000000  0 12       -.000179674000
G05  21117498.305 7 110973408.126 7        46.900    21117516.023 7  86472927.198 7        46.400    21117516.086 7  86472840.200 7        46.900
G19  21732266.328 7 114204107.232 7        42.600    21732286.129 5  88990179.519 5        31.900
G20  20585229.031 7 108176415.304 7        47.100    20585241.777 6  84293404.443 6        39.900
G17  24141677.852 5 126865345.932 5        34.600    24141699.457 4  98856231.014 4        26.000    24141699.121 6  98856168.010 6        37.600
G12  21917457.180 7 115177005.676 7        45.700    21917475.586 7  89748433.285 7        42.700    21917475.500 7  89748386.290 7        44.500
G06  22781939.977 6 119720085.218 6        39.800    22781958.102 5  93288528.737 5        35.400    22781958.340 7  93288436.729 7        42.400    22781961.027 7  89401450.635 7        47.000
G09  24517370.172 5 128839667.032 5        31.800    24517386.148 3 100394958.854 3        22.800    24517386.281 5 100394843.871 5        35.700    24517387.961 6  96211787.979 6        38.800
G22  25177001.695 5 132306051.655 5        30.100
G13  23206798.609 6 121952733.155 6        37.100    23206821.039 3  95028080.609 3        19.600
G25  23425030.109 6 123099369.969 6        37.600    23425051.980 5  95921660.859 5        31.000    23425051.891 6  95921585.854 6        39.200    23425055.402 7  91924816.100 7        44.700
G15  25388397.656 5 133416972.132 5        32.900    25388419.813 3 103961390.712 3        19.900    25388419.387 5 103961306.715 5        33.400
G11  21842388.813 7 114782729.330 7        45.700    21842401.766 5  89441258.483 5        34.900    21842402.000 8  89441181.481 8        48.300    21842406.930 8  85714523.071 8        50.500
> 2025  3 11 11  4 41.0000000  0 12       -.000179913000
G05  21117181.797 7 110971743.067 7        46.900    21117199.145 7  86471629.756 7        46.700    21117199.352 7  86471542.755 7        47.000
G19  21732628.328 7 114206006.763 7        42.800    21732647.449 5  88991659.667 5        32.700
G20  20585332.172 7 108176957.401 7        47.000    20585344.996 6  84293826.860 6        39.900
G17  24142123.625 5 126867692.840 5        34.800    24142145.965 4  98858059.798 4        24.900    24142145.813 6  98857996.803 6        37.300
G12  21917512.891 7 115177298.650 7        45.900    21917531.336 7  89748661.576 7        42.800    21917531.387 7  89748614.579 7        44.600
G06  22782062.992 6 119720726.596 6        39.800    22782080.168 6  93289028.507 6        36.000    22782080.426 7  93288936.507 7        42.500    22782083.105 7  89401929.589 7        47.200
G09  24517740.398 5 128841611.168 5        31.200    24517756.094 3 100396473.787 3        23.200    24517756.086 5 100396358.780 5        35.800    24517757.938 6  96213239.769 6        38.900
G22  25177530.070 5 132308819.032 5        31.000
G13  23206107.867 6 121949101.862 6        37.100    23206130.082 3  95025251.050 3        19.000
G25  23424780.180 6 123098052.218 6        37.600    23424801.281 5  95920634.038 5        30.500    23424801.289 6  95920559.024 6        39.500    23424804.586 7  91923832.056 7        45.100
G15  25387646.203 5 133413027.016 5        33.100    25387668.949 3 103958316.611 3        19.300    25387669.023 5 103958232.611 5        32.900
G11  21842354.742 7 114782549.661 7        45.500    21842367.637 5  89441118.485 5        35.800    21842367.574 8  89441041.476 8        48.300    21842372.754 8  85714388.899 8        50.800
> 2025  3 11 11  4 42.0000000  0 12       -.000180153000
G05  21116864.773 7 110970078.483 7        47.000    21116882.316 7  86470332.681 7        46.600    21116882.637 7  86470245.681 7        47.200
G19  21732989.805 7 114207906.735 7        42.600    21733009.094 5  88993140.161 5        32.600
G20  20585435.117 7 108177499.823 7        47.000    20585448.195 6  84294249.526 6        40.000
G17  24142570.367 5 126870040.039 5        35.100    24142592.656 4  98859888.794 4        26.700    24142592.133 6  98859825.804 6        37.300
G12  21917568.469 7 115177592.203 7        46.100    21917587.211 7  89748890.311 7        42.700    21917587.328 7  89748843.319 7        44.500
G06  22782184.148 6 119721367.994 6        40.300    22782202.246 5  93289528.292 5        35.800    22782202.430 7  93289436.282 7        42.600    22782205.195 7  89402408.540 7        47.700
G09  24518109.438 5 128843555.723 5        31.600    24518126.102 3 100397989.020 3        22.600    24518126.289 5 100397874.022 5        35.700    24518127.973 6  96214691.879 6        39.200
G22  25178056.688 5 132311586.36315        30.100
G13  23205416.789 6 121945470.564 6        37.500    23205439.063 3  95022421.445 3        19.900
G25  23424529.133 6 123096735.019 6        37.800    23424550.559 5  95919607.639 5        31.400    23424550.691 6  95919532.637 6        39.400    23424553.953 7  91922848.430 7        44.700
G15  25386894.172 5 133409081.724 5        32.900    25386918.109 3 103955242.369 3        19.600    25386918.266 5 103955158.376 5        32.800
G11  21842320.344 7 114782370.012 7        45.600    21842333.496 5  89440978.493 5        35.800    21842333.465 8  89440901.488 8        48.700    21842338.570 8  85714254.744 8        50.900
> 2025  3 11 11  4 43.0000000  0 12       -.000180393000
G05  21116548.227 7 110968414.371 7        47.200    21116565.645 7  86469035.974 7        46.600    21116565.746 7  86468948.973 7        47.300
G19  21733351.359 7 114209807.144 7        42.600    21733370.641 5  88994620.995 5        32.500
G20  20585538.375 7 108178042.563 7        47.100    20585551.559 6  84294672.444 6        39.700
G17  24143017.461 5 126872387.484 5        35.300    24143039.391 4  98861717.992 4        25.600    24143038.426 6  98861654.995 6        37.300
G12  21917624.500 7 115177886.325 7        45.700    21917643.145 7  89749119.494 7        43.000    21917643.359 7  89749072.492 7        44.700
G06  22782306.828 6 119722009.354 6        40.100    22782324.297 5  93290028.048 5        35.900    22782324.223 7  93289936.047 7        42.700    22782327.152 7  89402887.477 7        47.100
G09  24518480.055 5 128845500.697 5        31.500    24518496.020 3 100399504.583 3        22.900    24518496.711 5 100399389.592 5        35.500    24518497.984 6  96216144.302 6        39.500
G22  25178581.969 4 132314353.444 4        29.600
G13  23204726.023 6 121941839.236 6        37.600    23204748.160 3  95019591.848 3        20.900
G25  23424278.711 6 123095418.379 6        37.500    23424299.965 5  95918581.677 5        30.900    23424300.449 6  95918506.669 6        39.400    23424303.477 7  91921865.216 7        44.900
G15  25386144.469 5 133405136.285 5        32.400    25386167.441 3 103952168.007 3        19.600    25386166.668 5 103952084.015 5        33.100
G11  21842285.734 7 114782190.367 7        45.000    21842299.297 5  89440838.512 5        34.700    21842299.191 8  89440761.507 8        48.500    21842304.316 8  85714120.594 8        50.700
> 2025  3 11 11  4 44.0000000  0 12       -.000180634000
G05  21116231.555 7 110966750.745 7        47.200    21116249.063 7  86467739.646 7        46.700    21116249.215 7  86467652.648 7        47.400
G19  21733713.055 7 114211708.016 7        43.000    21733732.336 5  88996102.191 5        33.200
G20  20585641.828 7 108178585.644 7        47.000    20585654.801 6  84295095.622 6        39.700
G17  24143464.461 5 126874735.222 5        35.400    24143486.148 4  98863547.413 4        26.900    24143484.930 6  98863484.419 6        37.100
G12  21917680.820 7 115178181.029 7        45.600    21917699.211 7  89749349.129 7        43.200    21917699.375 7  89749302.128 7        44.700
G06  22782428.859 6 119722650.725 6        39.800    22782446.277 5  93290527.817 5        35.400    22782446.316 7  93290435.813 7        42.400    22782449.246 7  89403366.420 7        47.100
G09  24518850.016 5 128847446.097 5        30.800    24518866.098 3 100401020.481 3        23.000    24518866.242 5 100400905.505 5        35.500    24518868.266 6  96217597.042 6        39.100
G22  25179108.289 4 132317120.406 4        29.900
G13  23204034.578 6 121938207.923 6        37.400    23204057.160 3  95016762.241 3        19.900
G25  23424028.758 6 123094102.300 6        37.700    23424049.473 5  95917556.156 5        31.200    23424049.695 6  95917481.150 6        39.400    23424052.977 7  91920882.424 7        45.100
G15  25385393.500 5 133401190.694 5        32.600    25385416.609 3 103949093.576 3        20.900    25385416.012 5 103949009.547 5        33.600
G11  21842251.578 7 114782010.753 7        45.400    21842265.004 5  89440698.553 5        34.900    21842264.949 8  89440621.548 8        48.500    21842270.109 8  85713986.466 8        50.700
> 2025  3 11 11  4 45.0000000  0 12       -.000180874000
G05  21115914.828 7 110965087.587 7        47.500    21115932.684 7  86466443.684 7        46.500    21115932.730 7  86466356.684 7        47.700
G19  21734075.227 7 114213609.313 7        42.800    21734094.348 5  88997583.711 5        33.000
G20  20585745.305 7 108179129.034 7        47.100    20585758.207 6  84295519.044 6        39.700
G17  24143911.961 5 126877083.229 5        35.400    24143933.074 4  98865377.051 4        27.400    24143932.254 6  98865314.055 6        37.000
G12  21917737.313 7 115178476.284 7        45.400    21917755.387 7  89749579.191 7        43.500    21917755.281 7  89749532.197 7        44.700
G06  22782551.164 6 119723292.077 6        39.800    22782568.340 5  93291027.563 5        35.400    22782568.375 7  93290935.566 7        42.100    22782571.301 7  89403845.346 7        47.200
G09  24519219.891 5 128849391.933 5        30.800    24519236.398 3 100402536.726 3        22.500    24519236.102 5 100402421.729 5        35.500    24519238.594 6  96219050.111 6        39.100
G22  25179635.250 4 132319887.170 4        29.900
G13  23203343.805 6 121934576.575 6        37.500    23203366.129 3  95013932.629 3        19.000
G25  23423778.750 6 123092786.748 6        37.800    23423799.270 5  95916531.051 5        31.700    23423798.969 6  95916456.046 6        39.100    23423802.668 7  91919900.028 7        45.500
G15  25384641.195 5 133397244.919 5        32.500    25384665.727 3 103946018.965 3        20.400    25384664.969 5 103945934.950 5        33.100
G11  21842217.992 7 114781831.138 7        45.700    21842230.789 5  89440558.592 5        35.100    21842230.746 8  89440481.585 8        48.300    21842235.996 8  85713852.334 8        50.600
> 2025  3 11 11  4 46.0000000  0 12       -.000181114000
G05  21115598.516 7 110963424.841 7        47.100    21115616.105 7  86465148.044 7        46.600    21115616.473 7  86465061.041 7        47.400
G19  21734436.969 7 114215510.977 7        43.000    21734456.215 5  88999065.526 5        32.600
G20  20585848.922 7 108179672.671 7        47.200    20585861.633 6  84295942.658 6        40.000
G17  24144358.023 5 126879431.433 5        35.500    24144379.801 4  98867206.830 4        27.000    24144378.973 6  98867143.843 6        37.000
G12  21917793.141 7 115178772.042 7        45.800    21917811.719 7  89749809.650 7        42.700    21917811.883 7  89749762.647 7        45.000
G06  22782673.383 6 119723933.337 6        39.600    22782690.379 5  93291527.249 5        35.800    22782690.313 7  93291435.250 7        42.300    22782693.348 7  89404324.207 7        47.200
G09  24519590.031 5 128851338.107 5        31.600    24519606.785 3 100404053.237 3        22.000    24519606.715 5 100403938.231 5        35.900    24519608.945 6  96220503.418 6        39.000
G22  25180161.414 4                        29.400
G13  23202653.266 6 121930945.134 6        37.600    23202675.141 3  95011102.967 3        19.000
G25  23423527.859 6 123091471.682 6        37.900    23423549.180 5  95915506.315 5        31.800    23423548.910 6  95915431.318 6        38.900    23423552.402 7  91918917.996 7        45.500
G15  25383890.477 5 133393298.942 5        33.300    25383915.008 3 103942944.157 3        20.400    25383914.438 5 103942860.171 5        33.700
G11  21842183.523 7 114781651.459 7        45.800    21842196.645 5  89440418.579 5        35.400    21842196.609 8  89440341.577 8        48.800    21842201.777 8  85713718.160 8        50.500
> 2025  3 11 11  4 47.0000000  0 12       -.000181355000
G05  21115282.367 7 110961762.573 7        46.700    21115299.777 7  86463852.774 7        46.500    21115299.957 7  86463765.776 7        47.700
G19  21734798.797 7 114217413.067 7        42.800    21734817.938 5  89000547.674 5        32.600
G20  20585952.391 7 108180216.620 7        47.100    20585965.203 6  84296366.514 6        39.800
G17  24144805.500 5 126881779.890 5        35.500    24144826.668 4  98869036.814 4        27.600    24144826.020 6  98868973.828 6        37.200
G12  21917849.719 7 115179068.358 7        45.800    21917868.023 7  89750040.543 7        42.800    21917868.156 7  89749993.538 7        45.000
G06  22782794.414 6 119724574.576 6        39.900    22782812.438 5  93292026.909 5        35.600    22782812.359 7  93291934.909 7        42.000    22782815.352 7  89404803.050 7        47.200
G09  24519961.664 5 128853284.677 5        31.600    24519977.191 3 100405570.047 3        21.800    24519977.793 5 100405455.059 5        35.800    24519979.449 6  96221957.044 6        39.200
G22  25180687.344 4 132325420.05814        27.600
G13  23201961.984 6 121927313.666 6        37.100    23201984.012 3  95008273.263 3        20.100
G25  23423278.023 6 123090157.165 6        37.900    23423298.902 5  95914482.010 5        30.600    23423299.133 6  95914407.009 6        38.800    23423302.207 7  91917936.367 7        45.300
G15  25383140.203 5 133389352.778 5        33.400    25383164.059 3 103939869.253 3        20.100    25383163.867 5 103939785.255 5        33.300
G11  21842149.633 7 114781471.785 7        45.800    21842162.566 5  89440278.571 5        35.500    21842162.281 8  89440201.576 8        48.400    21842167.613 8  85713583.989 8        50.700
> 2025  3 11 11  4 48.0000000  0 12       -.000181593000
G05  21114966.102 7 110960100.808 7        47.100    21114983.625 7  86462557.894 7        46.900    21114983.652 7  86462470.898 7        47.600
G19  21735160.906 7 114219315.628 7        42.800    21735179.938 5  89002030.184 5        32.800
G20  20586056.156 7 108180760.915 7        47.300    20586068.770 6  84296790.645 6        39.900
G17  24145252.875 5 126884128.649 5        35.000    24145273.453 4  98870867.049 4        27.500    24145272.738 6  98870804.064 6        37.200
G12  21917905.922 7 115179365.272 7        46.000    21917924.520 7  89750271.898 7        42.700    21917924.492 7  89750224.900 7        45.100
G06  22782916.641 6 119725215.839 6        39.900    22782934.508 5  93292526.595 5        35.900    22782934.594 7  93292434.591 7        42.400    22782937.426 7  89405281.911 7        47.500
G09  24520333.664 5 128855231.709 5        31.900    24520347.688 3 100407087.222 3        22.600    24520348.027 6 100406972.225 6        36.000    24520349.961 6  96223410.998 6        39.600
G22  25181212.797 4                        28.900
G13  23201270.492 6 121923682.221 6        37.300    23201293.059 3  95005443.557 3        20.100
G25  23423027.219 6 123088843.224 6        37.400    23423048.922 5  95913458.154 5        31.400    23423049.078 6  95913383.143 6        38.400    23423052.293 7  91916955.169 7        45.500
G15  25382389.273 5 133385406.510 5        32.900    25382413.113 3 103936794.251 3        19.900    25382413.152 5 103936710.254 5        33.200
G11  21842115.359 7 114781292.156 7        46.000    21842128.305 5  89440138.599 5        34.800    21842128.242 8  89440061.599 8        48.200    21842133.453 8  85713449.848 8        50.400
> 2025  3 11 11  4 49.0000000  0 12       -.000181833000
G05  21114650.016 7 110958439.494 7        47.200    21114667.512 7  86461263.371 7        46.600    21114667.520 8  86461176.371 8        48.000
G19  21735523.258 7 114221218.609 7        42.700    21735542.211 5  89003513.022 5        32.100
G20  20586159.633 7 108181305.518 7        47.800    20586172.383 6  84297215.012 6        39.900
G17  24145698.813 5 126886477.679 5        35.000    24145720.594 4  98872697.492 4        26.000    24145719.422 6  98872634.486 6        36.800
G12  21917962.711 7 115179662.754 7        46.300    21917981.125 7  89750503.697 7        43.100    21917981.316 7  89750456.698 7        44.300
G06  22783038.789 6 119725857.073 6        39.900    22783056.426 5  93293026.251 5        35.700    22783056.961 7  93292934.250 7        42.600    22783059.379 7  89405760.756 7        47.200
G09  24520702.844 5 128857179.141 5        31.900    24520718.324 3 100408604.712 3        22.900    24520718.105 5 100408489.714 5        35.700    24520720.574 6  96224865.262 6        39.400
G22  25181740.813 4 132330952.393 4        29.100
G13  23200580.250 6 121920050.746 6        37.800    23200601.984 3  95002613.836 3        19.900
G25  23422777.148 6 123087529.815 6        37.300    23422799.031 5  95912434.722 5        31.400    23422798.891 6  95912359.711 6        38.700    23422802.422 7  91915974.379 7        45.400
G15  25381638.680 5 133381460.063 5        33.700    25381662.090 3 103933719.108 3        19.900    25381662.176 5 103933635.108 5        32.800
G11  21842081.203 7 114781112.528 7        46.200    21842094.090 5  89439998.633 5        34.900    21842093.941 7  89439921.629 7        47.900    21842099.297 8  85713315.710 8        50.600
> 2025  3 11 11  4 50.0000000  0 12       -.000182074000
G05  21114333.945 7 110956778.660 7        47.200    21114351.469 7  86459969.220 7        46.500    21114351.566 7  86459882.220 7        47.400
G19  21735885.531 7 114223122.042 7        42.700    21735904.418 5  89004996.205 5        32.100
G20  20586263.453 7 108181850.448 7        47.200    20586276.055 6  84297639.635 6        39.800
G17  24146145.813 5 126888826.979 5        35.200    24146167.680 4  98874528.133 4        26.400    24146166.914 6  98874465.135 6        37.500
G12  21918019.516 7 115179960.802 7        46.000    21918037.883 7  89750735.939 7        42.600    21918037.582 7  89750688.941 7        44.500
G06  22783160.055 6 119726498.299 6        40.000    22783178.387 5  93293525.905 5        35.900    22783178.684 7  93293433.907 7        42.500    22783181.453 7  89406239.589 7        47.500
G09  24521073.594 5 128859127.006 5        31.300    24521089.008 3 100410122.533 3        22.600    24521088.266 5 100410007.535 5        35.600    24521091.406 6  96226319.843 6        39.400
G22  25182267.055 4 132333718.26814        28.000
G13  23199889.500 6 121916419.267 6        37.900    23199910.836 3  94999784.103 3        21.100
G25  23422526.961 6 123086216.971 6        37.500    23422549.227 5  95911411.723 5        30.600    23422549.242 6  95911336.715 6        38.300    23422552.539 7  91914993.996 7        45.100
G15  25380888.344 5 133377513.446 5        33.800    25380911.113 3 103930643.809 3        19.600    25380911.223 5 103930559.832 5        32.700
G11  21842046.492 7 114780932.913 7        46.300    21842059.934 5  89439858.668 5        34.400    21842059.867 7  89439781.668 7        47.500    21842065.145 8  85713181.580 8        50.600
> 2025  3 11 11  4 51.0000000  0 12       -.000182314000
G05  21114017.836 7 110955118.334 7        46.900    21114035.473 7  86458675.464 7        46.300    21114035.559 7  86458588.465 7        47.300
G19  21736247.984 7 114225025.947 7        42.700    21736266.754 5  89006479.764 5        32.000
G20  20586367.180 7 108182395.724 7        47.200    20586379.809 6  84298064.528 6        40.100
G17  24146593.672 5 126891176.592 5        35.000    24146614.836 4  98876359.031 4        26.500    24146614.191 6  98876296.013 6        37.700
G12  21918075.984 7 115180259.449 7        45.600    21918094.762 7  89750968.645 7        42.600    21918094.664 7  89750921.644 7        44.700
G06  22783282.750 6 119727139.548 6        39.600    22783300.418 6  93294025.575 6        36.300    22783300.781 7  93293933.573 7        42.300    22783303.473 7  89406718.434 7        47.600
G09  24521444.305 5 128861075.323 5        31.500    24521459.848 4 100411640.702 4        24.100    24521459.133 6 100411525.713 6        36.000    24521462.039 6  96227774.758 6        39.700
G22  25182793.711 4 132336484.027 4        29.600
G13  23199198.250 6 121912787.831 6        38.300    23199219.719 3  94996954.416 3        20.400
G25  23422277.672 6 123084904.701 6        37.800    23422299.641 5  95910389.167 5        31.000    23422299.141 6  95910314.158 6        38.300    23422302.793 7  91914014.051 7        45.100
G15  25380137.953 5 133373566.709 5        34.500    25380159.984 3 103927568.476 3        19.900    25380159.547 5 103927484.456 5        33.200
G11  21842012.727 7 114780753.341 7        45.400    21842025.730 5  89439718.743 5        35.000    21842025.602 7  89439641.741 7        47.600    21842030.902 8  85713047.483 8        50.700
> 2025  3 11 11  4 52.0000000  0 12       -.000182554000
G05  21113701.992 7 110953458.548 7        47.000    21113719.602 7  86457382.129 7        46.800    21113719.754 7  86457295.133 7        46.800
G19  21736610.094 7 114226930.349 7        42.700    21736629.129 5  89007963.714 5        32.000
G20  20586470.906 7 108182941.382 7        47.100    20586483.680 6  84298489.718 6        39.800
G17  24147040.820 5 126893526.529 5        35.000    24147062.020 4  98878190.166 4        25.800    24147061.332 6  98878127.157 6        37.900
G12  21918133.156 7 115180558.729 7        45.800    21918151.688 7  89751201.844 7        43.400    21918151.781 7  89751154.841 7        44.600
G06  22783404.672 6 119727780.842 6        39.800    22783422.410 5  93294525.284 5        35.900    22783423.227 7  93294433.279 7        42.500    22783425.477 7  89407197.317 7        47.300
G09  24521814.469 5                        31.600    24521830.555 3                        22.600    24521830.617 6 100413044.267 6        36.500    24521832.867 6  96229230.040 6        39.700
G22  25183320.805 4 132339249.662 4        29.400
G13  23198507.320 6 121909156.440 6        38.200    23198528.605 3  94994124.781 3        20.100
G25  23422027.797 6 123083593.041 6        37.500    23422050.063 5  95909367.091 5        30.300    23422049.500 6  95909292.088 6        38.700    23422053.262 7  91913034.569 7        44.700
G15  25379387.031 5 133369619.843 5        34.400    25379408.797 3 103924492.986 3        20.400    25379408.301 5 103924409.000 5        33.200
G11  21841978.461 7 114780573.845 7        45.800    21841991.555 5  89439578.877 5        34.700    21841991.574 7  89439501.871 7        47.600    21841996.805 8  85712913.440 8        50.700
> 2025  3 11 11  4 53.0000000  0 12       -.000182795000
G05  21113386.266 7 110951799.246 7        47.000    21113403.848 7  86456089.173 7        46.600    21113404.055 7  86456002.173 7        46.900
G19  21736972.453 7 114228835.208 7        42.700    21736991.770 5  89009448.019 5        31.500
G20  20586574.719 7 108183487.376 7        47.000    20586587.637 6  84298915.169 6        40.200
G17  24147488.203 5 126895876.751 5        35.000    24147509.238 4  98880021.519 4        27.200    24147508.477 6  98879958.523 6        37.600
G12  21918190.117 7 115180858.586 7        45.800    21918208.762 7  89751435.493 7        42.900    21918208.598 7  89751388.495 7        44.900
G06  22783527.078 6 119728422.137 6        40.700    22783544.422 5  93295024.989 5        35.500    22783545.445 7  93294932.984 7        42.500    22783547.594 7  89407676.204 7        47.200
G09  24522186.023 5 128864973.354 5        31.000    24522201.500 3 100414678.163 3        22.200    24522201.949 6 100414563.154 6        36.200    24522203.770 6  96230685.651 6        39.700
G22  25183845.773 4 132342015.155 4        29.400
G13  23197815.438 6 121905525.034 6        38.100    23197837.547 3  94991295.085 3        19.300
G25  23421777.961 6 123082281.959 6        37.500    23421800.531 5  95908345.459 5        30.400    23421799.992 6  95908270.456 6        38.000    23421803.742 7  91912055.499 7        44.900
G15  25378635.844 5 133365672.855 5        34.300    25378657.680 3 103921417.440 3        19.900    25378657.535 5 103921333.420 5        32.600
G11  21841944.367 7 114780394.370 7        45.200    21841957.461 5  89439439.026 5        34.600    21841957.031 7  89439362.021 7        47.800    21841962.613 8  85712779.417 8        50.700
> 2025  3 11 11  4 54.0000000  0 12       -.000183035000
G05  21113070.109 7 110950140.413 7        46.900    21113088.129 7  86454796.580 7        46.300    21113088.297 7  86454709.581 7        47.300
G19  21737335.344 7 114230740.495 7        43.200    21737354.344 5  89010932.648 5        32.400
G20  20586678.602 7 108184033.690 7        47.100    20586691.594 6  84299340.866 6        40.300
G17  24147934.602 5 126898227.252 5        35.400    24147956.430 4  98881853.115 4        26.600    24147955.996 6  98881790.102 6        37.300
G12  21918247.250 7 115181159.013 7        45.500    21918265.973 7  89751669.587 7        42.900    21918265.766 7  89751622.589 7        45.100
G06  22783649.602 6 119729063.419 6        40.100    22783666.492 5  93295524.684 5        35.800    22783667.410 7  93295432.681 7        42.300    22783669.543 7  89408155.080 7        47.100
G09  24522557.125 5 128866923.038 5        30.800    24522572.641 3 100416197.394 3        22.500    24522572.809 6 100416082.383 6        36.600    24522574.820 6  96232141.568 6        39.900
G22  25184371.633 5 132344780.456 5        30.100
G13  23197124.523 6 121901893.622 6        38.400    23197146.551 3  94988465.419 3        19.600
G25  23421529.688 6 123080971.408 6        37.600    23421551.086 5  95907324.252 5        30.800    23421550.637 6  95907249.250 6        38.000    23421554.395 7  91911076.843 7        45.000
G15  25377884.477 5 133361725.669 5        34.300    25377906.676 3 103918341.709 3        19.600    25377905.938 5 103918257.689 5        33.200
G11  21841910.055 7 114780214.910 7        45.000    21841923.395 5  89439299.182 5        34.900    21841922.918 7  89439222.177 7        47.800    21841928.430 8  85712645.403 8        50.900
> 2025  3 11 11  4 55.0000000  0 12       -.000183275000
G05  21112754.836 7 110948482.066 7        47.200    21112772.617 7  86453504.366 7        46.700    21112772.652 7  86453417.368 7        47.300
G19  21737697.938 7 114232646.233 7        43.000    21737716.938 5  89012417.637 5        31.700
G20  20586782.391 7 108184580.329 7        47.100    20586795.426 6  84299766.822 6        40.400
G17  24148381.891 5 126900578.034 5        34.800    24148403.703 4  98883684.896 4        25.600    24148403.109 6  98883621.899 6        37.200
G12  21918304.734 7 115181460.020 7        45.800    21918323.328 7  89751904.134 7        42.600    21918322.988 7  89751857.135 7        44.900
G06  22783771.656 6 119729704.698 6        39.800    22783788.594 6  93296024.378 6        36.000    22783789.297 7  93295932.382 7        42.100    22783791.539 7  89408633.960 7        47.100
G09  24522926.719 5 128868873.109 5        31.200    24522943.883 3 100417716.938 3        22.300    24522943.488 6 100417601.940 6        36.600    24522945.926 6  96233597.811 6        39.900
G22  25184898.141 5                        30.300
G13  23196433.523 6 121898262.188 6        37.300    23196455.570 3  94985635.754 3        19.300
G25  23421281.195 6 123079661.447 6        37.600    23421301.727 5  95906303.495 5        31.600    23421301.508 6  95906228.485 6        38.100    23421305.230 7  91910098.610 7        44.900
G15  25377133.578 5 133357778.343 5        34.500    25377155.508 3 103915265.866 3        19.900    25377154.789 5 103915181.875 5        32.600
G11  21841875.852 7 114780035.471 7        45.100    21841889.195 5  89439159.359 5        35.000    21841889.066 8  89439082.354 8        48.000    21841894.340 8  85712511.404 8        50.900
> 2025  3 11 11  4 56.0000000  0 12       -.000183516000
G05  21112439.563 7 110946824.201 7        47.100    21112457.027 7  86452212.528 7        46.600    21112457.051 7  86452125.533 7        47.200
G19  21738060.422 7 114234552.420 7        43.000    21738079.641 5  89013902.971 5        32.100
G20  20586886.898 7 108185127.298 7        47.100    20586899.680 6  84300193.031 6        40.500
G17  24148829.211 5 126902929.077 5        35.300    24148851.004 4  98885516.898 4        26.400    24148850.500 6  98885453.906 6        37.300
G12  21918362.063 7 115181761.598 7        45.900    21918380.707 7  89752139.126 7        43.000    21918380.434 7  89752092.125 7        44.900
G06  22783892.523 6 119730345.991 6        39.900    22783910.676 5  93296524.082 5        35.400    22783911.125 7  93296432.078 7        42.300    22783913.594 7  89409112.830 7        46.800
G09  24523297.711 5 128870823.633 5        31.500    24523315.102 3 100419236.822 3        22.500    24523314.777 6 100419121.817 6        36.800    24523317.234 6  96235054.370 6        39.800
G22  25185424.922 5 132350310.629 5        30.100
G13  23195742.273 6 121894630.749 6        38.000    23195764.523 3  94982806.057 3        20.100
G25  23421031.531 6 123078352.022 6        37.600    23421052.438 5  95905283.160 5        30.600    23421052.520 6  95905208.154 6        38.300    23421055.945 7  91909120.788 7        44.800
G15  25376382.695 5 133353830.868 5        34.900    25376404.230 3 103912189.921 3        20.400    25376403.324 5 103912105.912 5        33.100
G11  21841841.734 7 114779856.050 7        45.000    21841854.949 5  89439019.550 5        35.300    21841855.082 7  89438942.543 7        47.900    21841860.227 8  85712377.419 8        51.100
> 2025  3 11 11  4 57.0000000  0 12       -.000183754000
G05  21112123.914 7 110945166.818 7        47.300    21112141.656 7  86450921.064 7        46.400    21112141.738 7  86450834.065 7        47.300
G19  21738423.719 7 114236459.050 7        43.000    21738442.293 5  89015388.651 5        32.200
G20  20586991.063 7 108185674.588 7        47.000    20587003.828 6  84300619.494 6        40.200
G17  24149275.914 5 126905280.415 5        35.100    24149298.270 4  98887349.137 4        25.700    24149297.953 6  98887286.133 6        36.900
G12  21918419.734 7 115182063.755 7        45.800    21918438.211 7  89752374.570 7        43.000    21918437.910 7  89752327.565 7        44.700
G06  22784014.844 6 119730987.247 6        39.900    22784032.637 5  93297023.757 5        35.600    22784033.078 7  93296931.761 7        42.200    22784035.645 7  89409591.694 7        47.000
G09  24523669.508 5 128872774.557 5        32.000    24523686.359 3 100420757.022 3        23.000    24523686.316 6 100420642.031 6        37.100    24523688.563 6  96236511.238 6        39.900
G22  25185951.961 5 132353075.482 5        30.500
G13  23195051.813 6 121890999.299 6        37.300    23195073.313 3  94979976.353 3        20.100
G25  23420782.063 6 123077043.147 6        37.600    23420803.426 5  95904263.252 5        30.500    23420803.660 6  95904188.250 6        38.400    23420806.887 7  91908143.381 7        45.000
G15  25375629.938 5 133349883.219 5        34.600    25375652.883 3 103909113.843 3        20.600    25375652.301 5 103909029.846 5        33.300
G11  21841807.445 7 114779676.640 7        45.100    21841820.754 5  89438879.747 5        35.000    21841820.824 7  89438802.743 7        47.900    21841826.016 8  85712243.446 8        50.700
> 2025  3 11 11  4 58.0000000  0 12       -.000183994000
G05  21111808.727 7 110943509.898 7        46.800    21111826.359 7  86449629.962 7        46.300    21111826.180 7  86449542.965 7        47.100
G19  21738786.188 7 114238366.100 7        43.000    21738805.266 5  89016874.661 5        32.200
G20  20587095.070 7 108186222.184 7        46.900    20587108.027 6  84301046.193 6        40.000
G17  24149724.102 5 126907632.012 5        35.300    24149745.664 4  98889181.568 4        25.900    24149745.594 6  98889118.564 6        36.900
G12  21918477.461 7 115182366.458 7        45.800    21918495.773 7  89752610.439 7        43.100    21918495.508 7  89752563.435 7        44.900
G06  22784136.820 6 119731628.492 6        39.800    22784154.566 5  93297523.433 5        35.800    22784154.605 7  93297431.434 7        42.000    22784157.715 7  89410070.541 7        47.000
G09  24524041.297 5 128874725.891 5        31.600    24524057.859 3 100422277.574 3        23.400    24524057.703 6 100422162.562 6        37.100    24524059.988 6  96237968.420 6        39.900
G22  25186479.047 5 132355840.139 5        30.700
G13  23194360.375 6 121887367.821 6        37.600    23194382.125 3  94977146.650 3        19.600
G25  23420533.180 6 123075734.821 6        38.000    23420554.430 5  95903243.772 5        30.700    23420554.563 6  95903168.767 6        38.600    23420557.895 7  91907166.376 7        44.900
G15  25374880.023 5 133345935.404 5        34.900    25374901.621 3 103906037.626 3        20.400    25374900.836 5 103905953.623 5        33.200
G11  21841772.961 7 114779497.238 7        45.200    21841786.770 5  89438739.955 5        34.600    21841786.668 7  89438662.946 7        47.700    21841791.914 8  85712109.473 8        50.800
> 2025  3 11 11  4 59.0000000  0 12       -.000184235000
G05  21111493.500 7 110941853.445 7        46.800    21111511.176 7  86448339.226 7        46.500    21111511.145 7  86448252.227 7        47.500
G19  21739149.117 7 114240273.588 7        43.000    21739168.406 5  89018361.012 5        32.500
G20  20587199.383 7 108186770.094 7        47.000    20587212.156 6  84301473.132 6        40.000
G17  24150171.805 5 126909983.847 5        35.200    24150193.227 4  98891014.186 4        27.300    24150193.152 6  98890951.204 6        36.700
G12  21918534.961 7 115182669.728 7        45.700    21918553.512 7  89752846.749 7        43.200    21918553.441 7  89752799.747 7        44.900
G06  22784258.633 6 119732269.710 6        39.900    22784276.602 5  93298023.078 5        35.300    22784276.559 6  93297931.075 6        41.700    22784279.617 7  89410549.373 7        47.000
G09  24524412.773 5 128876677.638 5        32.200    24524429.180 4 100423798.423 4        25.000    24524429.387 6 100423683.405 6        36.900    24524431.480 6  96239425.900 6        40.400
G22  25187005.242 5 132358604.625 5        30.800
G13  23193669.398 6 121883736.311 6        37.500    23193691.184 3  94974316.885 3        19.300
G25  23420284.078 6 123074427.028 6        37.900    23420305.469 5  95902224.707 5        31.200    23420305.723 6  95902149.702 6        38.800    23420309.109 7  91906189.773 7        44.700
G15  25374128.922 5 133341987.418 5        34.800    25374150.500 3 103902961.279 3        20.600    25374150.129 5 103902877.28315        32.800
G11  21841739.227 7 114779317.831 7        45.500    21841752.719 5  89438600.157 5        34.700    21841752.586 7  89438523.151 7        47.900    21841757.789 8  85711975.501 8        50.800
> 2025  3 11 11  5  0.0000000  0 12       -.000184475000
G05  21111178.703 7 110940197.491 7        46.800    21111195.973 7  86447048.876 7        47.000    21111195.930 7  86446961.879 7        47.200
G19  21739512.336 7 114242181.524 7        42.700    21739531.508 5  89019847.711 5        31.700
G20  20587303.820 7 108187318.338 7        47.200    20587316.633 6  84301900.336 6        39.900
G17  24150620.078 5 126912335.977 5        35.800    24150640.910 4  98892847.044 4        26.000    24150640.602 6  98892784.059 6        37.100
G12  21918592.977 7 115182973.575 7        45.600    21918611.410 7  89753083.506 7        43.000    21918611.141 7  89753036.507 7        45.100
G06  22784380.586 6 119732910.938 6        39.400    22784398.633 6  93298522.732 6        36.200    22784398.289 6  93298430.734 6        41.700    22784401.613 7  89411028.205 7        47.100
G09  24524784.656 5 128878629.828 5        32.000    24524800.668 3 100425319.612 3        22.200    24524800.402 6 100425204.589 6        37.000    24524803.125 6  96240883.708 6        40.000
G22  25187529.477 5                        31.300
G13  23192978.133 6 121880104.820 6        37.900    23193000.125 3  94971487.169 3        19.900
G25  23420036.008 6 123073119.794 6        37.900    23420056.566 5  95901206.076 5        30.900    23420056.930 6  95901131.081 6        38.600    23420060.355 7  91905213.590 7        45.100
G15  25373377.367 5 133338039.287 5        35.000    25373399.207 3 103899884.810 3        20.400    25373399.215 5 103899800.809 5        33.100
G11  21841705.320 7 114779138.455 7        45.400    21841718.410 5  89438460.380 5        35.200    21841718.434 7  89438383.373 7        47.800    21841723.664 8  85711841.548 8        51.000
> 2025  3 11 11  5  1.0000000  0 12       -.000184715000
G05  21110863.477 7 110938542.055 7        47.200    21110881.082 7  86445758.930 7        46.400    21110881.043 7  86445671.934 7        47.100
G19  21739875.023 7 114244089.936 7        42.800    21739894.684 5  89021334.782 5        32.200
G20  20587408.359 7 108187866.938 7        47.200    20587421.098 6  84302327.819 6        40.200
G17  24151068.063 5 126914688.452 5        35.500    24151088.547 4  98894680.171 4        26.900    24151088.246 6  98894617.165 6        37.100
G12  21918650.555 7 115183278.035 7        45.700    21918669.254 7  89753320.744 7        42.600    21918669.051 7  89753273.741 7        44.900
G06  22784502.266 6 119733552.192 6        39.400    22784520.652 5  93299022.408 5        35.700    22784520.293 6  93298930.406 6        41.800    22784523.672 7  89411507.054 7        46.800
G09  24525155.688 5 128880582.459 5        32.000    24525172.250 4 100426841.136 4        25.800    24525172.117 6 100426726.135 6        36.600    24525174.859 6  96242341.847 6        40.000
G22  25188055.930 5 132364133.148 5        30.500
G13  23192287.555 6 121876473.325 6        38.200    23192308.984 3  94968657.433 3        19.600
G25  23419787.313 6 123071813.163 6        37.600    23419807.879 5  95900187.925 5        31.500    23419808.746 6  95900112.911 6        38.600    23419811.758 7  91904237.850 7        45.200
G15  25372625.789 5 133334091.035 5        34.800    25372647.922 3 103896808.258 3        20.900    25372648.172 5 103896724.248 5        33.000
G11  21841671.266 7 114778959.127 7        45.200    21841684.348 5  89438320.644 5        34.300    21841684.270 8  89438243.635 8        48.100    21841689.500 8  85711707.632 8        50.800
> 2025  3 11 11  5  2.0000000  0 12       -.000184956000
G05  21110548.297 7 110936887.117 7        47.100    21110566.020 7  86444469.370 7        46.400    21110566.195 7  86444382.375 7        47.300
G19  21740238.617 7 114245998.817 7        43.000    21740257.934 5  89022822.218 5        32.600
G20  20587512.742 7 108188415.880 7        47.200    20587525.461 6  84302755.570 6        39.800
G17  24151515.688 5 126917041.186 5        35.300    24151536.121 4  98896513.484 4        26.600    24151535.629 6  98896450.494 6        37.100
G12  21918708.125 7 115183583.076 7        45.500    21918727.176 7  89753558.432 7        42.500    21918727.070 7  89753511.432 7        45.000
G06  22784624.055 6 119734193.446 6        39.900    22784642.664 5  93299522.079 5        35.700    22784642.551 7  93299430.088 7        42.100    22784645.734 7  89411985.909 7        47.000
G09  24525527.227 5 128882535.546 5        31.600    24525543.945 3 100428363.036 3        22.800    24525543.383 6 100428248.028 6        36.600    24525546.574 6  96243800.330 6        40.300
G22  25188581.016 5 132366897.201 5        31.800
G13  23191596.508 6 121872841.856 6        38.000    23191618.063 3  94965827.730 3        20.600
G25  23419538.500 6 123070507.094 6        37.900    23419559.348 5  95899170.197 5        31.500    23419559.410 6  95899095.196 6        38.300    23419563.211 7  91903262.534 7        44.800
G15  25371875.008 5 133330142.627 5        34.900    25371896.480 3 103893731.583 3        20.900    25371896.199 5 103893647.578 5        33.300
G11  21841637.117 7 114778779.835 7        45.800    21841650.199 5  89438180.932 5        34.600    21841649.961 8  89438103.926 8        48.100    21841655.387 8  85711573.744 8        51.000
> 2025  3 11 11  5  3.0000000  0 12       -.000185194000
G05  21110233.703 7 110935232.666 7        47.000    21110251.281 7  86443180.195 7        46.600    21110251.258 7  86443093.195 7        47.500
G19  21740602.172 7 114247908.151 7        42.900    21740621.348 5  89024310.006 5        32.300
G20  20587617.461 7 108188965.159 7        47.200    20587629.977 6  84303183.580 6        40.000
G17  24151962.727 5 126919394.215 5        35.500    24151983.793 4  98898347.037 4        24.100    24151983.633 6  98898284.045 6        37.000
G12  21918767.008 7 115183888.715 7        46.000    21918785.508 7  89753796.589 7        42.800    21918785.383 7  89753749.588 7        44.700
G06  22784747.070 6 119734834.722 6        40.200    22784764.695 6  93300021.770 6        36.200    22784764.691 6  93299929.775 6        41.700    22784767.684 7  89412464.778 7        47.300
G09  24525898.828 5 128884489.082 5        31.800    24525915.750 4 100429885.281 4        24.400    24525915.031 6 100429770.267 6        36.700    24525918.297 6  96245259.135 6        40.400
G22  25189108.266 5 132369661.103 5        31.500
G13  23190905.922 6 121869210.385 6        37.900    23190927.078 3  94962998.010 3        19.300
G25  23419290.422 6 123069201.589 6        38.100    23419310.941 5  95898152.924 5        31.100    23419310.820 6  95898077.919 6        38.300    23419314.816 7  91902287.645 7        44.900
G15  25371123.578 5 133326194.075 5        34.700    25371145.086 3 103890654.798 3        20.400    25371144.578 5 103890570.805 5        33.300
G11  21841602.766 7 114778600.571 7        46.200    21841616.113 5  89438041.244 5        34.600    21841615.980 8  89437964.236 8        48.100    21841621.313 8  85711439.877 8        50.900
> 2025  3 11 11  5  4.0000000  0 12       -.000185434000
G05  21109918.875 7 110933578.687 7        47.100    21109936.535 7  86441891.382 7        46.800    21109936.473 7  86441804.387 7        47.600
G19  21740965.016 7 114249817.918 7        42.800    21740984.742 5  89025798.130 5        32.600
G20  20587722.016 7 108189514.752 7        47.100    20587734.547 6  84303611.839 6        39.800
G17  24152410.680 5 126921747.525 5        35.400    24152431.730 4  98900180.814 4        26.000    24152431.324 6  98900117.813 6        37.300
G12  21918824.789 7 115184194.915 7        45.900    21918843.703 7  89754035.181 7        42.700    21918843.699 7  89753988.180 7        44.600
G06  22784870.188 6 119735475.975 6        40.200    22784886.863 6  93300521.442 6        36.300    22784887.066 7  93300429.446 7        42.300    22784889.816 7  89412943.630 7        47.100
G09  24526270.898 5 128886443.011 5        30.500    24526287.590 4 100431407.813 4        24.000    24526287.316 6 100431292.820 6        36.800    24526290.012 6  96246718.255 6        40.500
G22  25189634.922 5 132372424.819 5        31.800
G13  23190215.078 6 121865578.905 6        37.900    23190236.172 3  94960168.310 3        19.600
G25  23419041.969 6 123067896.637 6        38.100    23419062.770 5  95897136.068 5        30.500    23419062.598 6  95897061.063 6        37.900    23419066.512 7  91901313.156 7        44.900
G15  25370371.766 5 133322245.366 5        34.300    25370393.645 3 103887577.888 3        20.400    25370393.176 5 103887493.902 5        33.600
G11  21841568.836 7 114778421.315 7        45.300    21841581.965 5  89437901.557 5        35.000    21841581.910 7  89437824.555 7        47.900    21841587.172 8  85711306.014 8        50.900
> 2025  3 11 11  5  5.0000000  0 12       -.000185675000
G05  21109604.305 7 110931925.202 7        46.800    21109621.766 7  86440602.959 7        46.700    21109621.844 7  86440515.963 7        47.800
G19  21741328.836 7 114251728.139 7        43.100    21741348.188 5  89027286.612 5        32.800
G20  20587826.477 7 108190064.678 7        47.200    20587839.160 6  84304040.355 6        39.900
G17  24152858.805 5 126924101.108 5        34.700    24152879.602 4  98902014.788 4        24.700    24152879.250 6  98901951.796 6        37.500
G12  21918883.125 7 115184501.694 7        46.100    21918902.090 7  89754274.224 7        42.600    21918902.164 7  89754227.221 7        44.700
G06  22784991.773 6 119736117.226 6        40.100    22785008.832 6  93301021.115 6        36.500    22785009.590 7  93300929.119 7        42.400    22785011.832 7  89413422.483 7        47.100
G09  24526642.266 5 128888397.402 5        30.700    24526659.508 3 100432930.724 3        22.600    24526659.031 6 100432815.726 6        36.300    24526661.828 6  96248177.697 6        40.300
G22  25190160.188 5 132375188.404 5        31.300
G13  23189523.859 6 121861947.416 6        37.900    23189545.203 3  94957338.553 3        19.900
G25  23418793.188 6 123066592.254 6        37.700    23418814.676 5  95896119.665 5        30.600    23418814.117 6  95896044.658 6        38.000    23418818.367 7  91900339.097 7        44.900
G15  25369620.102 5 133318296.486 5        33.900    25369642.172 3 103884500.855 3        21.500    25369641.840 5 103884416.862 5        33.700
G11  21841535.016 7 114778242.082 7        45.200    21841547.887 5  89437761.896 5        35.000    21841547.719 7  89437684.893 7        47.800    21841553.074 8  85711172.171 8        50.900
> 2025  3 11 11  5  6.0000000  0 12       -.000185915000
G05  21109289.742 7 110930272.148 7        47.000    21109307.320 7  86439314.871 7        46.600    21109307.191 7  86439227.873 7        47.600
G19  21741692.398 7 114253638.758 7        42.900    21741711.754 5  89028775.405 5        32.600
G20  20587931.188 7 108190614.881 7        47.100    20587943.875 6  84304469.087 6        39.800
G17  24153306.406 5 126926454.939 5        34.700    24153327.566 4  98903848.961 4        27.100    24153327.535 6  98903785.960 6        37.400
G12  21918941.797 7 115184809.002 7        45.500    21918960.566 7  89754513.680 7        42.700    21918960.652 7  89754466.671 7        45.000
G06  22785113.688 6 119736758.420 6        40.600    22785130.844 6  93301520.738 6        36.200    22785131.418 7  93301428.745 7        42.500    22785133.863 7  89413901.293 7        46.800
G09  24527013.742 5 128890352.153 5        31.300    24527031.500 3 100434453.919 3        22.600    24527031.137 6 100434338.910 6        36.200    24527033.852 6  96249637.416 6        40.000
G22  25190685.656 5 132377951.765 5        31.200
G13  23188831.992 6 121858315.865 6        38.100    23188853.988 3  94954508.780 3        21.100
G25  23418544.992 6 123065288.361 6        37.700    23418566.684 5  95895103.633 5        30.900    23418566.063 6  95895028.644 6        38.500    23418570.191 7  91899365.411 7        45.000
G15  25368867.742 5 133314347.437 5        33.900    25368890.801 3 103881423.692 3        21.100    25368890.203 5 103881339.684 5        34.200
G11  21841501.133 7 114778062.816 7        45.500    21841513.805 5  89437622.210 5        34.800    21841513.680 7  89437545.202 7        47.900    21841519.008 8  85711038.301 8        51.000
> 2025  3 11 11  5  7.0000000  0 12       -.000186155000
G05  21108975.094 7 110928619.505 7        47.400    21108992.742 7  86438027.099 7        46.500    21108992.527 7  86437940.103 7        47.700
G19  21742055.984 7 114255549.743 7        42.800    21742075.262 5  89030264.476 5        32.600
G20  20588035.836 7 108191165.341 7        47.200    20588048.590 6  84304898.015 6        40.000
G17  24153754.781 5 126928808.968 5        35.100    24153775.551 4  98905683.283 4        26.700    24153775.395 6  98905620.290 6        37.300
G12  21919000.461 7 115185116.809 7        45.400    21919019.109 7  89754753.525 7        42.700    21919019.055 7  89754706.521 7        44.800
G06  22785236.742 6 119737399.544 6        40.500    22785252.867 6  93302020.315 6        36.400    22785253.590 7  93301928.322 7        42.400    22785255.867 7  89414380.050 7        46.900
G09  24527386.438 5 128892307.264 5        30.700    24527403.465 3 100435977.373 3        22.900    24527403.133 6 100435862.385 6        36.500    24527405.832 6  96251097.411 6        39.900
G22  25191210.859 5 132380714.897 5        31.900
G13  23188141.453 6 121854684.235 6        37.900    23188162.855 3  94951678.933 3        20.900
G25  23418297.758 6 123063984.978 6        37.800    23418318.656 5  95894088.014 5        31.200    23418317.898 6  95894013.005 6        38.900    23418322.238 7  91898392.098 7        44.700
G15  25368117.008 5 133310398.134 5        34.300    25368139.211 3 103878346.322 3        21.100    25368139.293 5 103878262.316 5        34.700
G11  21841466.633 7 114777883.502 7        45.400    21841479.648 5  89437482.487 5        35.100    21841479.500 7  89437405.479 7        47.600    21841484.914 8  85710904.398 8        50.800
> 2025  3 11 11  5  8.0000000  0 12       -.000186396000
G05  21108661.180 7 110926967.347 7        47.500    21108678.285 7  86436739.709 7        46.700    21108678.258 7  86436652.710 7        47.800
G19  21742419.859 7 114257461.195 7        42.700    21742439.059 5  89031753.918 5        32.000
G20  20588140.719 7 108191716.140 7        47.100    20588153.223 6  84305327.213 6        40.100
G17  24154201.828 5 126931163.277 5        35.100    24154223.508 4  98907517.841 4        25.700    24154223.637 6  98907454.844 6        37.800
G12  21919059.078 7 115185425.204 7        45.600    21919077.777 7  89754993.831 7        42.700    21919078.023 7  89754946.826 7        44.800
G06  22785358.266 6 119738040.677 6        40.400    22785374.895 6  93302519.897 6        36.000    22785375.484 7  93302427.903 7        42.300    22785377.750 7  89414858.820 7        47.100
G09  24527757.352 5 128894262.812 5        31.200    24527775.621 3 100437501.187 3        22.200    24527775.324 6 100437386.206 6        36.900    24527777.785 6  96252557.742 6        40.200
G22  25191737.430 5 132383477.895 5        31.600
G13  23187449.813 6 121851052.634 6        37.500    23187471.762 3  94948849.133 3        20.600
G25  23418050.102 6 123062682.159 6        37.700    23418070.570 5  95893072.833 5        31.200    23418069.387 6  95892997.813 6        38.400    23418074.250 7  91897419.212 7        45.000
G15  25367364.297 5 133306448.695 5        33.900    25367387.609 3 103875268.836 3        21.700    25367387.906 5 103875184.855 5        34.600
G11  21841432.250 7 114777704.226 7        45.500    21841445.512 5  89437342.789 5        34.700    21841445.359 7  89437265.781 7        47.700    21841450.762 8  85710770.521 8        50.800
> 2025  3 11 11  5  9.0000000  0 12       -.000186634000
G05  21108346.281 7 110925315.675 7        47.500    21108364.059 7  86435452.697 7        46.300    21108363.734 7  86435365.702 7        47.500
G19  21742784.109 7 114259373.110 7        42.800    21742802.883 5  89033243.713 5        32.700
G20  20588245.797 7 108192267.281 7        47.100    20588258.301 6  84305756.673 6        40.300
G17  24154649.336 5 126933517.892 5        35.000    24154671.469 4  98909352.630 4        25.800    24154671.633 6  98909289.624 6        37.700
G12  21919118.180 7 115185734.193 7        45.400    21919136.582 7  89755234.594 7        43.000    21919136.578 7  89755187.593 7        44.700
G06  22785480.086 6 119738681.824 6        40.400    22785496.820 6  93303019.488 6        36.000    22785497.242 7  93302927.493 7        42.500    22785499.805 7  89415337.589 7        47.000
G09  24528130.773 5 128896218.821 5        31.000    24528147.957 3 100439025.357 3        21.800    24528147.473 6 100438910.348 6        36.700    24528150.047 6  96254018.382 6        39.800
G22  25192262.852 5 132386240.751 5        31.500
G13  23186758.273 6 121847421.057 6        37.300    23186780.676 3  94946019.317 3        20.900
G25  23417802.281 6 123061379.910 6        37.900    23417822.762 5  95892058.075 5        30.800    23417821.871 6  95891983.071 6        38.300    23417826.516 7  91896446.749 7        45.200
G15  25366613.516 5 133302499.110 5        34.200    25366636.090 3 103872191.230 3        21.700    25366636.418 5 103872107.264 5        34.700
G11  21841398.359 7 114777524.982 7        44.800    21841411.316 5  89437203.118 5        35.000    21841411.176 7  89437126.111 7        47.400    21841416.645 8  85710636.670 8        51.000
> 2025  3 11 11  5 10.0000000  0 12       -.000186874000
G05  21108032.430 7 110923664.462 7        46.900    21108049.758 7  86434166.044 7        46.500    21108049.668 7  86434079.045 7        47.800
G19  21743147.961 7 114261285.438 7        43.100    21743166.789 5  89034733.832 5        33.300
G20  20588350.125 7 108192818.721 7        47.000    20588363.176 6  84306186.369 6        39.900
G17  24155098.781 5 126935872.752 5        34.900    24155119.551 4  98911187.604 4        26.500    24155119.512 6  98911124.613 6        37.800
G12  21919176.773 7 115186043.728 7        45.400    21919195.555 7  89755475.786 7        42.600    21919195.230 7  89755428.785 7        44.600
G06  22785601.742 6 119739322.940 6        40.300    22785618.867 6  93303519.062 6        36.300    22785619.348 7  93303427.056 7        42.400    22785621.770 7  89415816.340 7        47.000
G09  24528502.609 5 128898175.211 5        31.200    24528520.273 3 100440549.806 3        23.200    24528519.785 6 100440434.830 6        36.300    24528522.258 6  96255479.331 6        39.800
G22  25192788.180 5 132389003.404 5        31.900
G13  23186067.461 6 121843789.454 6        37.700    23186089.457 3  94943189.518 3        20.100
G25  23417554.109 6 123060078.199 6        37.700    23417575.105 5  95891043.753 5        30.600    23417574.531 6  95890968.750 6        38.300    23417578.805 7  91895474.688 7        44.800
G15  25365862.492 5 133298549.346 5        34.300    25365884.500 3 103869113.527 3        22.500    25365884.617 5 103869029.540 5        35.000
G11  21841364.102 7 114777345.734 7        44.800    21841377.281 5  89437063.443 5        34.900    21841377.074 7  89436986.434 7        47.600    21841382.516 8  85710502.811 8        51.000
> 2025  3 11 11  5 11.0000000  0 12       -.000187115000
G05  21107718.289 7 110922013.777 7        47.000    21107735.762 7  86432879.802 7        46.600    21107735.477 7  86432792.802 7        47.500
G19  21743511.844 7 114263198.268 7        42.900    21743530.703 5  89036224.344 5        32.600
G20  20588455.633 7 108193370.535 7        47.200    20588468.199 6  84306616.355 6        40.300
G17  24155545.984 5 126938227.948 5        35.100    24155567.766 4  98913022.855 4        25.200    24155567.504 6  98912959.847 6        37.100
G12  21919235.961 7 115186353.883 7        45.400    21919254.547 7  89755717.460 7        42.900    21919254.484 7  89755670.467 7        44.500
G06  22785724.141 6 119739964.090 6        40.600    22785740.789 6  93304018.653 6        36.300    22785741.371 7  93303926.659 7        42.600    22785743.855 7  89416295.123 7        47.000
G09  24528874.578 5 128900132.077 5        30.700    24528892.551 3 100442074.645 3        22.200    24528892.371 6 100441959.672 6        36.500    24528894.590 6  96256940.639 6        39.900
G22  25193313.609 5 132391765.946 5        32.000
G13  23185376.492 6 121840157.888 6        37.900    23185398.285 3  94940359.704 3        19.600
G25  23417306.414 6 123058777.099 6        37.300    23417327.410 5  95890029.906 5        30.800    23417327.480 6  95889954.905 6        38.100    23417331.262 7  91894503.079 7        45.000
G15  25365111.125 5 133294599.498 5        34.400    25365132.918 3 103866035.750 3        22.800    25365132.699 5 103865951.731 5        34.500
G11  21841329.953 7 114777166.553 7        45.300    21841343.195 5  89436923.817 5        34.800    21841343.125 7  89436846.810 7        47.600    21841348.461 8  85710369.006 8        50.600
> 2025  3 11 11  5 12.0000000  0 12       -.000187355000
G05  21107404.328 7 110920363.634 7        47.200    21107421.730 7  86431593.981 7        46.600    21107421.793 7  86431506.982 7        47.300
G19  21743875.664 7 114265111.592 7        42.800    21743894.727 5  89037715.247 5        33.400
G20  20588560.617 7 108193922.732 7        47.000    20588573.348 6  84307046.639 6        40.200
G17  24155995.016 5 126940583.473 5        35.400    24156016.121 4  98914858.330 4        26.000    24156015.465 6  98914795.354 6        37.000
G12  21919294.758 7 115186664.675 7        45.600    21919313.699 7  89755959.635 7        42.800    21919313.539 7  89755912.633 7        44.800
G06  22785846.305 6 119740605.302 6        40.500    22785862.809 6  93304518.301 6        36.400    22785863.594 7  93304426.295 7        42.600    22785865.863 7  89416773.947 7        47.200
G09  24529247.219 5 128902089.431 5        31.000    24529264.910 3 100443599.868 3        22.600    24529264.789 6 100443484.878 6        36.500    24529267.035 6  96258402.302 6        39.900
G22  25193839.391 5 132394528.399 5        31.900
G13  23184685.250 6 121836526.384 6        37.900    23184707.227 3  94937529.975 3        19.600
G25  23417058.977 6 123057476.608 6        37.700    23417079.996 5  95889016.534 5        31.600    23417079.645 6  95888941.533 6        38.400    23417083.766 7  91893531.932 7        45.000
G15  25364358.773 5 133290649.532 5        34.500    25364381.324 3 103862957.856 3        23.600    25364380.773 5 103862873.856 5        34.500
G11  21841295.930 7 114776987.445 7        45.500    21841309.148 5  89436784.250 5        35.100    21841309.227 8  89436707.252 8        48.000    21841314.371 8  85710235.257 8        50.500
> 2025  3 11 11  5 13.0000000  0 12       -.000187595000
G05  21107090.352 7 110918713.904 7        47.300    21107107.848 7  86430308.480 7        46.700    21107107.867 7  86430221.482 7        47.400
G19  21744239.992 7 114267025.287 7        42.700    21744258.789 5  89039206.426 5        33.000
G20  20588665.453 7 108194475.185 7        47.000    20588678.375 6  84307477.122 6        40.000
G17  24156442.633 5 126942939.220 5        35.700    24156464.449 4  98916694.008 4        26.200    24156463.445 6  98916631.008 6        36.700
G12  21919354.281 7 115186975.968 7        45.400    21919373.039 7  89756202.195 7        43.400    21919372.859 7  89756155.191 7        44.700
G06  22785968.555 6 119741246.448 6        40.200    22785984.887 6  93305017.891 6        36.700    22785985.160 7  93304925.882 7        42.600    22785987.832 7  89417252.715 7        47.200
G09  24529622.008 5 128904047.130 5        31.500    24529637.266 4 100445125.352 4        25.100    24529637.559 6 100445010.371 6        36.400    24529639.500 6  96259864.233 6        40.000
G22  25194364.656 5 132397290.588 5        31.900
G13  23183994.344 6 121832894.779 6        37.700    23184016.207 3  94934700.153 3        19.300
G25  23416810.977 6 123056176.610 6        37.500    23416832.535 5  95888003.550 5        31.400    23416832.172 6  95887928.543 6        38.700    23416836.398 7  91892561.146 7        45.000
G15  25363607.750 5 133286699.346 5        34.100    25363629.691 3 103859879.782 3        22.600    25363629.434 5 103859795.804 5        34.700
G11  21841262.063 7 114776808.286 7        45.700    21841275.031 5  89436644.645 5        35.500    21841275.250 7  89436567.645 7        47.900    21841280.309 8  85710101.470 8        50.500
> 2025  3 11 11  5 14.0000000  0 12       -.000187836000
G05  21106776.383 7 110917064.641 7        46.900    21106793.848 7  86429023.346 7        46.400    21106793.594 7  86428936.345 7        47.000
G19  21744604.117 7 114268939.411 7        42.700    21744623.152 5  89040697.953 5        31.900
G20  20588770.938 7 108195027.937 7        47.000    20588783.527 6  84307907.840 6        39.800
G17  24156890.680 5 126945295.218 5        35.400    24156912.625 4  98918529.873 4        25.600    24156911.598 6  98918466.870 6        36.600
G12  21919413.555 7 115187287.811 7        45.400    21919432.152 7  89756445.185 7        43.200    21919432.227 7  89756398.183 7        44.800
G06  22786089.820 6 119741887.550 6        40.300    22786106.910 6  93305517.442 6        36.300    22786106.992 7  93305425.444 7        42.300    22786109.816 7  89417731.461 7        47.000
G09  24529993.109 5 128906005.257 5        31.000    24530009.895 3 100446651.190 3        22.300    24530010.129 6 100446536.177 6        36.200    24530011.906 6  96261326.470 6        39.900
G22  25194891.469 5 132400052.639 5        32.600
G13  23183303.797 6 121829263.160 6        38.100    23183325.184 3  94931870.346 3        19.900
G25  23416563.328 6 123054877.142 6        37.500    23416585.188 5  95886990.964 5        30.900    23416585.008 6  95886915.964 6        38.700    23416589.168 7  91891590.759 7        45.100
G15  25362856.219 5 133282748.984 5        35.000    25362878.047 3 103856801.599 3        22.000    25362877.676 5 103856717.607 5        34.200
G11  21841227.953 7 114776629.120 7        45.800    21841240.855 5  89436505.038 5        35.300    21841240.879 8  89436428.036 8        48.100    21841246.184 8  85709967.681 8        50.500
> 2025  3 11 11  5 15.0000000  0 12       -.000188076000
G05  21106462.602 7 110915415.881 7        47.000    21106480.102 7  86427738.603 7        46.600    21106480.008 7  86427651.600 7        47.000
G19  21744968.227 7 114270853.988 7        42.700    21744987.500 5  89042189.827 5        32.200
G20  20588876.188 7 108195581.021 7        46.900    20588888.816 6  84308338.814 6        39.900
G17  24157339.773 5 126947651.484 5        35.500    24157360.938 4  98920365.940 4        27.700    24157360.156 6  98920302.955 6        36.500
G12  21919473.055 7 115187600.238 7        45.700    21919491.719 7  89756688.630 7        43.100    21919491.863 7  89756641.625 7        44.900
G06  22786212.102 6 119742528.662 6        40.500    22786228.867 6  93306017.006 6        37.100    22786229.262 7  93305925.007 7        42.200    22786231.930 7  89418210.207 7        47.200
G09  24530365.898 5 128907963.772 5        31.800    24530382.477 3 100448177.312 3        21.700    24530382.484 6 100448062.320 6        36.300    24530384.488 6  96262789.023 6        39.400
G22  25195415.477 5 132402814.508 5        32.200
G13  23182613.250 6 121825631.529 6        38.300    23182634.137 3  94929040.499 3        19.600
G25  23416316.281 6 123053578.237 6        37.400    23416337.926 5  95885978.825 5        30.000    23416337.723 6  95885903.828 6        38.800    23416342.023 7  91890620.790 7        45.000
G15  25362103.453 5 133278798.472 5        35.200    25362126.332 3 103853723.297 3        22.600    25362126.098 5 103853639.297 5        34.200
G11  21841193.523 7 114776449.988 7        45.700    21841206.766 5  89436365.452 5        35.300    21841206.711 8  89436288.447 8        48.200    21841212.137 8  85709833.909 8        50.500
> 2025  3 11 11  5 16.0000000  0 12       -.000188314000
G05  21106149.195 7 110913767.621 7        46.900    21106166.523 7  86426454.246 7        46.700    21106166.566 7  86426367.246 7        47.000
G19  21745332.930 7 114272769.023 7        43.000    21745351.883 5  89043682.054 5        31.900
G20  20588981.648 7 108196134.450 7        47.000    20588994.098 6  84308770.060 6        39.900
G17  24157788.781 6 126950008.056 6        36.100    24157809.289 4  98922202.266 4        27.300    24157808.820 6  98922139.264 6        36.500
G12  21919532.727 7 115187913.254 7        45.600    21919551.242 7  89756932.533 7        42.700    21919551.148 7  89756885.533 7        44.700
G06  22786333.977 6 119743169.775 6        40.400    22786350.895 6  93306516.572 6        36.400    22786351.523 7  93306424.578 7        42.400    22786353.770 7  89418688.959 7        46.800
G09  24530738.938 5 128909922.761 5        31.500    24530755.281 3 100449703.790 3        22.300    24530755.684 6 100449588.812 6        36.600    24530757.340 6  96264251.910 6        39.400
G22  25195940.195 5 132405576.241 5        31.500
G13  23181921.961 6 121821999.924 6        38.100    23181943.180 3  94926210.681 3        20.100
G25  23416069.422 6 123052279.895 6        37.600    23416090.738 5  95884967.130 5        30.600    23416090.770 6  95884892.131 6        38.600    23416094.902 7  91889651.246 7        45.000
G15  25361352.359 5 133274847.813 5        35.800    25361374.590 3 103850644.868 3        22.200    25361374.340 5 103850560.866 5        34.300
G11  21841159.414 7 114776270.887 7        45.400    21841172.547 5  89436225.892 5        35.200    21841172.477 8  89436148.888 8        48.300    21841177.996 8  85709700.162 8        50.500
> 2025  3 11 11  5 17.0000000  0 12       -.000188555000
G05  21105835.594 7 110912119.803 7        47.000    21105852.953 7  86425170.240 7        46.300    21105852.863 7  86425083.237 7        47.000
G19  21745697.563 7 114274684.475 7        42.800    21745716.344 5  89045174.612 5        32.300
G20  20589086.844 7 108196688.179 7        47.000    20589099.625 6  84309201.542 6        39.700
G17  24158237.219 5 126952364.873 5        35.800    24158257.633 4  98924038.769 4        26.400    24158257.469 6  98923975.773 6        36.900
G12  21919592.453 7 115188226.816 7        45.500    21919610.938 7  89757176.862 7        42.400    21919610.910 7  89757129.858 7        44.900
G06  22786456.445 6 119743810.866 6        40.500    22786472.938 6  93307016.123 6        36.300    22786473.504 7  93306924.123 7        42.200    22786475.797 7  89419167.688 7        46.900
G09  24531111.422 5 128911882.149 5        31.900    24531128.184 3 100451230.603 3        22.500    24531128.715 6 100451115.606 6        36.700    24531130.148 6  96265715.096 6        39.200
G22  25196466.875 5 132408337.772 5        30.700
G13  23181230.820 6 121818368.279 6        38.300    23181252.125 3  94923380.846 3        20.400
G25  23415822.727 6 123050982.097 6        37.500    23415843.738 5  95883955.847 5        30.600    23415843.672 6  95883880.851 6        38.400    23415848.008 7  91888682.105 7        45.200
G15  25360600.648 5 133270896.999 5        35.500    25360622.691 3 103847566.320 3        22.300    25360622.836 5 103847482.325 5        34.600
G11  21841125.563 7 114776091.778 7        45.400    21841138.488 5  89436086.327 5        35.400    21841138.477 8  89436009.322 8        48.100    21841143.953 8  85709566.410 8        50.700
> 2025  3 11 11  5 18.0000000  0 12       -.000188795000
G05  21105521.969 7 110910472.447 7        47.000    21105539.480 7  86423886.589 7        46.700    21105539.281 7  86423799.588 7        47.000
G19  21746062.141 7 114276600.347 7        42.700    21746080.957 5  89046667.498 5        32.400
G20  20589192.203 7 108197242.208 7        47.200    20589204.969 6  84309633.253 6        39.500
G17  24158685.672 5 126954721.948 5        35.600    24158706.141 4  98925875.466 4        26.900    24158705.797 6  98925812.476 6        37.100
G12  21919652.016 7 115188540.920 7        45.400    21919670.715 7  89757421.616 7        42.700    21919670.734 7  89757374.613 7        45.000
G06  22786577.914 6 119744451.933 6        40.400    22786594.934 5  93307515.650 5        35.700    22786595.207 7  93307423.644 7        42.500    22786597.863 7  89419646.400 7        47.000
G09  24531483.852 5 128913841.924 5        31.200    24531501.203 3 100452757.712 3        22.300    24531501.152 6 100452642.710 6        36.800    24531503.301 6  96267178.572 6        39.400
G22  25196991.602 5 132411099.118 5        30.500
G13  23180539.969 6 121814736.609 6        38.300    23180561.027 3  94920550.967 3        21.100
G25  23415575.508 6 123049684.817 6        37.400    23415596.883 5  95882944.979 5        30.600    23415596.719 6  95882869.983 6        38.200    23415601.066 7  91887713.360 7        45.200
G15  25359848.430 5 133266945.990 5        34.900    25359870.758 3 103844487.633 3        22.600    25359870.527 5 103844403.635 5        34.500
G11  21841091.492 7 114775912.662 7        45.400    21841104.551 5  89435946.754 5        35.000    21841104.672 8  89435869.747 8        48.600    21841109.930 8  85709432.653 8        50.700
> 2025  3 11 11  5 19.0000000  0 12       -.000189035000
G05  21105208.813 7 110908825.567 7        47.000    21105226.047 7  86422603.312 7        46.700    21105225.945 7  86422516.311 7        47.000
G19  21746426.867 7 114278516.651 7        42.900    21746445.684 5  89048160.718 5        32.300
G20  20589297.570 7 108197796.557 7        47.200    20589310.488 6  84310065.217 6        39.500
G17  24159133.586 5 126957079.303 5        35.600    24159154.801 4  98927712.387 4        27.000    24159154.410 6  98927649.390 6        37.000
G12  21919711.992 7 115188855.588 7        45.600    21919730.563 7  89757666.806 7        42.600    21919730.328 7  89757619.805 7        44.900
G06  22786700.398 6 119745092.968 6        40.200    22786716.949 6  93308015.152 6        36.300    22786717.246 7  93307923.158 7        42.600    22786719.852 7  89420125.100 7        47.000
G09  24531857.469 5 128915802.136 5        30.800    24531874.070 3 100454285.152 3        22.900    24531874.172 6 100454170.146 6        36.500    24531876.320 6  96268642.370 6        39.500
G22  25197517.133 5 132413860.299 5        30.300
G13  23179849.086 6 121811104.915 6        38.400    23179869.949 3  94917721.046 3        20.900
G25  23415328.539 6 123048388.095 6        37.500    23415350.254 5  95881934.543 5        30.100    23415350.391 6  95881859.536 6        38.400    23415354.352 7  91886745.020 7        45.000
G15  25359096.469 5 133262994.833 5        34.900    25359118.805 3 103841408.809 3        22.300    25359118.758 5 103841324.810 5        33.800
G11  21841057.289 7 114775733.558 7        45.800    21841070.488 5  89435807.195 5        34.800    21841070.570 8  89435730.184 8        48.100    21841075.766 8  85709298.905 8        50.900
> 2025  3 11 11  5 20.0000000  0 12       -.000189276000
G05  21104895.367 7 110907179.213 7        47.200    21104912.820 7  86421320.443 7        46.400    21104912.629 7  86421233.444 7        46.900
G19  21746791.586 7 114280433.449 7        42.900    21746810.379 5  89049654.321 5        32.400
G20  20589403.406 7 108198351.269 7        47.000    20589416.066 6  84310497.461 6        39.800
G17  24159581.820 5 126959436.955 5        35.400    24159603.438 4  98929549.540 4        25.300    24159603.184 6  98929486.541 6        37.200
G12  21919772.000 7 115189170.870 7        45.300    21919790.484 7  89757912.475 7        42.600    21919790.375 7  89757865.474 7        44.600
G06  22786821.766 6 119745734.054 6        40.200    22786838.977 5  93308514.704 5        35.900    22786839.230 7  93308422.700 7        42.900    22786841.855 7  89420603.825 7        47.000
G09  24532228.695 5 128917762.809 5        30.800    24532247.008 3 100455812.949 3        22.000    24532247.391 6 100455697.947 6        36.900    24532249.258 6  96270106.510 6        39.200
G22  25198043.383 5 132416621.359 5        30.300
G13  23179157.742 6 121807473.262 6        38.100    23179178.813 3  94914891.188 3        21.100
G25  23415082.703 6 123047091.971 6        37.500    23415103.625 5  95880924.571 5        30.500    23415103.844 6  95880849.570 6        38.300    23415107.652 7  91885777.133 7        44.600
G15  25358344.195 5 133259043.551 5        34.500    25358366.898 3 103838329.894 3        22.200    25358366.766 5 103838245.903 5        33.200
G11  21841023.492 7 114775554.513 7        45.800    21841036.449 5  89435667.673 5        35.000    21841036.273 7  89435590.666 7        47.900    21841041.707 8  85709165.201 8        50.800
> 2025  3 11 11  5 21.0000000  0 12       -.000189516000
G05  21104582.227 7 110905533.305 7        46.900    21104599.496 7  86420037.922 7        46.600    21104599.355 7  86419950.920 7        46.700
G19  21747155.984 7 114282350.643 7        42.800    21747175.281 5  89051148.236 5        32.000
G20  20589508.828 7 108198906.260 7        47.000    20589521.633 6  84310929.925 6        39.800
G17  24160031.188 5 126961794.834 5        35.400    24160052.117 4  98931386.869 4        26.800    24160052.254 6  98931323.872 6        37.200
G12  21919832.039 7 115189486.678 7        45.400    21919850.766 7  89758158.557 7        42.500    21919850.395 7  89758111.558 7        44.300
G06  22786943.078 6 119746375.078 6        40.000    22786961.004 5  93309014.197 5        35.900    22786960.820 7  93308922.199 7        42.500    22786963.754 7  89421082.508 7        46.600
G09  24532602.172 5 128919723.868 5        30.500    24532620.105 3 100457341.041 3        22.200    24532620.305 6 100457226.040 6        36.800    24532622.387 6  96271570.937 6        39.400
G22  25198569.422 5 132419382.235 5        30.100
G13  23178466.391 6 121803841.544 6        37.600    23178487.617 3  94912061.294 3        21.100
G25  23414835.734 6 123045796.358 6        37.200    23414857.141 5  95879914.998 5        30.000    23414857.496 6  95879839.998 6        38.800    23414861.109 7  91884809.620 7        45.100
G15  25357590.992 5 133255092.072 5        34.300    25357614.922 3 103835250.856 3        21.700    25357614.660 5 103835166.830 5        34.200
G11  21840989.063 7 114775375.436 7        45.100    21841002.328 5  89435528.128 5        35.000    21841002.262 8  89435451.126 8        48.000    21841007.605 8  85709031.474 8        50.800
> 2025  3 11 11  5 22.0000000  0 12       -.000189754000
G05  21104269.266 7 110903887.901 7        47.200    21104286.520 7  86418755.795 7        46.600    21104286.375 7  86418668.797 7        46.700
G19  21747521.047 7 114284268.325 7        43.000    21747540.293 5  89052642.530 5        32.600
G20  20589614.797 7 108199461.616 7        47.100    20589627.293 6  84311362.673 6        40.200
G17  24160480.031 5 126964153.053 5        35.400    24160500.891 4  98933224.481 4        26.800    24160500.551 6  98933161.454 6        36.700
G12  21919892.211 7 115189803.105 7        45.600    21919910.992 7  89758405.120 7        42.900    21919910.785 7  89758358.120 7        44.300
G06  22787064.625 6 119747016.148 6        40.000    22787083.066 6  93309513.725 6        36.000    22787082.605 7  93309421.729 7        42.600    22787085.848 7  89421561.224 7        46.800
G09  24532974.844 5 128921685.305 5        30.100    24532993.457 3 100458869.439 3        22.200    24532993.180 6 100458754.510 6        36.500    24532995.559 6  96273035.717 6        39.400
G22  25199095.523 5 132422142.94115        30.700
G13  23177774.133 6 121800209.865 6        37.300    23177796.445 3  94909231.408 3        20.600
G25  23414589.313 6 123044501.338 6        37.800    23414610.719 4  95878905.886 4        29.600    23414610.785 6  95878830.876 6        38.700    23414614.703 7  91883842.553 7        44.700
G15  25356840.602 5 133251140.489 5        34.600    25356862.980 3 103832171.697 3        21.700    25356862.762 5 103832087.699 5        33.600
G11  21840954.922 7 114775196.421 7        45.300    21840968.242 5  89435388.640 5        34.800    21840968.133 8  89435311.634 8        48.000    21840973.574 8  85708897.794 8        50.800
> 2025  3 11 11  5 23.0000000  0 12       -.000189995000
G05  21103956.188 7 110902242.956 7        47.000    21103973.359 7  86417474.023 7        46.600    21103973.441 7  86417387.023 7        47.000
G19  21747885.813 7 114286186.422 7        42.900    21747905.254 5  89054137.142 5        32.400
G20  20589720.258 7 108200017.266 7        47.000    20589733.125 6  84311795.648 6        40.100
G17  24160928.648 5 126966511.500 5        34.800    24160949.648 4  98935062.240 4        26.500    24160949.223 6  98934999.240 6        36.900
G12  21919952.430 7 115190120.081 7        45.700    21919971.227 7  89758652.106 7        42.400    21919971.000 7  89758605.105 7        44.600
G06  22787187.594 6 119747657.186 6        40.300    22787205.250 6  93310013.231 6        37.100    22787204.859 7  93309921.235 7        42.600    22787207.863 7  89422039.915 7        46.700
G09  24533348.555 4 128923647.31714        29.400    24533366.879 3 100460398.26813        22.000    24533366.563 6 100460283.281 6        36.400    24533368.930 6  96274500.786 6        39.000
G22  25199619.742 5 132424903.476 5        30.100
G13  23177082.469 6 121796578.146 6        37.200    23177105.438 3  94906401.536 3        19.300
G25  23414342.922 6 123043206.861 6        37.400    23414364.445 5  95877897.194 5        30.400    23414364.641 6  95877822.190 6        39.000    23414368.422 7  91882875.890 7        44.700
G15  25356088.453 5 133247188.709 5        34.800    25356110.980 3 103829092.395 3        21.700    25356110.500 5 103829008.391 5        33.500
G11  21840920.781 7 114775017.398 7        45.600    21840934.277 5  89435249.144 5        34.600    21840933.926 7  89435172.138 7        47.900    21840939.480 8  85708764.108 8        50.700
> 2025  3 11 11  5 24.0000000  0 12       -.000190235000
G05  21103643.242 7 110900598.511 7        47.200    21103660.348 7  86416192.643 7        46.600    21103660.453 7  86416105.642 7        47.200
G19  21748250.961 7 114288104.982 7        43.400    21748270.250 5  89055632.124 5        32.100
G20  20589825.680 7 108200573.267 7        47.000    20589838.922 6  84312228.898 6        39.600
G17  24161376.438 5 126968870.259 5        35.900    24161398.395 4  98936900.251 4        26.500    24161398.066 6  98936837.252 6        36.800
G12  21920013.039 7 115190437.655 7        45.800    21920031.672 7  89758899.561 7        42.500    21920031.625 7  89758852.560 7        44.900
G06  22787309.695 6 119748298.244 6        40.500    22787327.012 6  93310512.754 6        36.700    22787327.137 7  93310420.754 7        42.500    22787329.859 7  89422518.622 7        46.800
G09  24533722.453 4 128925609.654 4        29.900    24533740.340 3 100461927.381 3        22.500    24533739.930 6 100461812.402 6        36.100    24533742.203 6  96275966.197 6        39.200
G22  25200145.664 5 132427663.865 5        30.700
G13  23176391.938 6 121792946.450 6        37.200    23176414.328 3  94903571.619 3        19.600
G25  23414097.320 6 123041912.949 6        37.500    23414118.379 5  95876888.953 5        30.800    23414118.211 6  95876813.953 6        39.000    23414122.141 7  91881909.661 7        45.000
G15  25355335.742 5 133243236.799 5        35.000    25355358.859 3 103826013.001 3        21.300    25355357.977 5 103825929.002 5        33.200
G11  21840886.766 7 114774838.413 7        45.500    21840900.176 5  89435109.672 5        34.600    21840899.828 8  89435032.669 8        48.100    21840905.535 8  85708630.452 8        51.000
> 2025  3 11 11  5 25.0000000  0 12       -.000190475000
G05  21103330.063 7 110898954.578 7        47.200    21103347.598 7  86414911.661 7        46.500    21103347.570 7  86414824.660 7        47.300
G19  21748616.492 7 114290023.999 7        43.100    21748635.445 5  89057127.458 5        32.700
G20  20589931.781 7 108201129.603 7        46.800    20589944.715 6  84312662.406 6        39.900
G17  24161826.242 6 126971229.307 6        36.200    24161847.309 4  98938738.488 4        26.200    24161846.844 6  98938675.486 6        36.600
G12  21920073.773 7 115190755.810 7        45.600    21920092.281 7  89759147.472 7        42.500    21920092.188 7  89759100.470 7        45.200
G06  22787432.445 6 119748939.306 6        40.400    22787448.996 6  93311012.272 6        37.000    22787449.008 7  93310920.282 7        42.500    22787451.887 7  89422997.337 7        47.100
G09  24534096.047 5 128927572.471 5        30.700    24534113.926 3 100463456.872 3        22.500    24534113.309 5 100463341.850 5        35.800    24534115.465 6  96277431.926 6        39.400
G22  25200670.531 5 132430424.131 5        32.200
G13  23175701.727 6 121789314.777 6        37.700    23175723.125 3  94900741.786 3        20.400
G25  23413850.336 6 123040619.610 6        37.300    23413872.254 5  95875881.151 5        30.700    23413872.066 6  95875806.152 6        39.000    23413876.098 7  91880943.846 7        45.000
G15  25354585.469 5 133239284.754 5        34.600    25354606.625 3 103822933.493 3        21.500    25354605.738 5 103822849.493 5        33.100
G11  21840853.047 7 114774659.473 7        45.000    21840866.160 5  89434970.237 5        34.900    21840866.020 8  89434893.230 8        48.000    21840871.461 8  85708496.820 8        51.000
> 2025  3 11 11  5 26.0000000  0 12       -.000190716000
G05  21103017.430 7 110897311.085 7        47.100    21103034.895 7  86413631.018 7        46.500    21103034.719 7  86413544.017 7        47.300
G19  21748982.258 7 114291943.434 7        43.300    21749000.629 5  89058623.116 5        32.700
G20  20590037.445 7 108201686.230 7        46.900    20590050.586 6  84313096.141 6        39.400
G17  24162275.945 5 126973588.595 5        35.900    24162296.090 4  98940576.926 4        27.700    24162295.559 6  98940513.912 6        37.000
G12  21920134.836 7 115191074.506 7        45.700    21920152.859 7  89759395.802 7        42.400    21920152.809 7  89759348.801 7        45.200
G06  22787553.570 6 119749580.336 6        40.000    22787570.965 6  93311511.774 6        36.300    22787571.039 7  93311419.780 7        42.600    22787573.805 7  89423476.021 7        47.200
G09  24534470.141 5 128929535.654 5        30.700    24534487.582 3 100464986.624 3        22.900    24534487.023 5 100464871.617 5        35.900    24534488.828 6  96278897.948 6        39.100
G22  25201195.133 5                        30.300
G13  23175010.539 6 121785683.039 6        37.400    23175032.266 3  94897911.852 3        21.100
G25  23413604.594 6 123039326.795 6        37.300    23413626.129 5  95874873.759 5        30.400    23413625.836 6  95874798.758 6        38.700    23413630.004 7  91879978.430 7        45.300
G15  25353832.820 5 133235332.527 5        35.200    25353854.293 3 103819853.831 3        21.500    25353853.863 5 103819769.835 5        33.500
G11  21840818.992 7 114774480.506 7        45.300    21840832.055 5  89434830.780 5        34.600    21840831.801 8  89434753.774 8        48.000    21840837.324 8  85708363.174 8        50.900
> 2025  3 11 11  5 27.0000000  0 12       -.000190956000
G05  21102704.805 7 110895668.030 7        47.000    21102722.199 7  86412350.721 7        46.600    21102722.125 7  86412263.722 7        47.200
G19  21749347.625 7 114293863.280 7        43.200    21749366.043 5  89060119.097 5        32.300
G20  20590143.359 7 108202243.145 7        47.000    20590156.535 6  84313530.100 6        39.500
G17  24162725.070 5 126975948.113 5        35.400    24162745.008 4  98942415.524 4        25.900    24162744.652 6  98942352.529 6        36.900
G12  21920195.141 7 115191393.742 7        45.700    21920213.633 7  89759644.551 7        42.600    21920213.668 7  89759597.550 7        44.400
G06  22787675.469 6 119750221.318 6        40.300    22787693.086 6  93312011.239 6        36.200    22787692.938 7  93311919.239 7        42.600    22787695.785 7  89423954.673 7        47.100
G09  24534844.758 5 128931499.237 5        31.500    24534861.168 3 100466516.696 3        22.600    24534860.328 6 100466401.698 6        36.200    24534862.316 6  96280364.264 6        38.800
G22  25201720.250 5 132435944.045 5        30.700
G13  23174318.742 6 121782051.280 6        37.300    23174341.141 3  94895081.912 3        20.900
G25  23413359.258 6 123038034.513 6        37.400    23413380.266 5  95873866.779 5        30.600    23413379.906 6  95873791.790 6        38.700    23413384.195 7  91879013.409 7        45.300
G15  25353080.094 5 133231380.118 5        34.800    25353101.906 3 103816774.028 3        21.700    25353101.828 5 103816690.018 5        33.600
G11  21840784.914 7 114774301.524 7        45.400    21840797.883 5  89434691.312 5        35.500    21840797.465 7  89434614.311 7        47.600    21840803.297 8  85708229.522 8        50.900
> 2025  3 11 11  5 28.0000000  0 12       -.000191196000
G05  21102392.219 7 110894025.451 7        47.100    21102409.684 7  86411070.796 7        46.500    21102409.906 7  86410983.793 7        47.300
G19  21749712.602 7 114295783.558 7        42.900    21749731.496 5  89061615.417 5        32.800
G20  20590249.750 7 108202800.375 7        47.100    20590262.488 6  84313964.307 6        39.700
G17  24163174.031 5 126978307.916 5        35.300    24163194.148 4  98944254.362 4        26.700    24163193.328 6  98944191.356 6        37.100
G12  21920256.234 7 115191713.541 7        45.600    21920274.543 7  89759893.741 7        42.700    21920274.277 7  89759846.739 7        44.600
G06  22787797.906 6 119750862.287 6        40.300    22787814.922 6  93312510.694 6        36.900    22787815.027 7  93312418.691 7        42.900    22787817.844 7  89424433.313 7        47.100
G09  24535218.523 5 128933463.235 5        31.500    24535234.918 3 100468047.085 3        22.900    24535234.254 5 100467932.082 5        35.900    24535236.070 6  96281830.892 6        38.900
G22  25202245.070 5 132438703.734 5        31.200
G13  23173626.984 6 121778419.499 6        37.900    23173650.051 3  94892251.954 3        19.900
G25  23413113.188 6 123036742.775 6        37.600    23413134.422 5  95872860.227 5        30.500    23413134.516 6  95872785.225 6        38.400    23413138.273 7  91878048.792 7        44.900
G15  25352328.422 5 133227427.531 5        34.500    25352349.715 3 103813694.077 3        21.800    25352349.117 5 103813610.095 5        33.100
G11  21840750.766 7 114774122.549 7        45.300    21840763.762 5  89434551.852 5        35.300    21840763.727 7  89434474.852 7        47.700    21840769.191 8  85708095.873 8        51.000
> 2025  3 11 11  5 29.0000000  0 12       -.000191437000
G05  21102079.695 7 110892383.349 7        47.200    21102097.160 7  86409791.239 7        46.600    21102097.336 7  86409704.243 7        47.200
G19  21750078.609 7 114297704.267 7        43.000    21750096.977 5  89063112.064 5        32.600
G20  20590356.031 7 108203357.914 7        47.200    20590368.656 6  84314398.756 6        39.900
G17  24163622.719 5 126980667.986 5        35.300    24163643.215 4  98946093.398 4        26.600    24163642.578 6  98946030.392 6        37.000
G12  21920316.820 7 115192033.903 7        45.300    21920335.422 7  89760143.369 7        42.500    21920335.113 7  89760096.366 7        44.600
G06  22787919.070 6 119751503.233 6        40.100    22787936.848 6  93313010.131 6        36.100    22787936.969 7  93312918.135 7        43.000    22787939.781 7  89424911.943 7        47.100
G09  24535592.438 5 128935427.620 5        32.300    24535608.707 3 100469577.766 3        23.300    24535608.109 6 100469462.798 6        36.500    24535609.750 6  96283297.830 6        38.700
G22  25202771.563 5 132441463.243 5        30.800
G13  23172937.039 6 121774787.700 6        38.100    23172958.773 3  94889421.992 3        20.400
G25  23412867.930 6 123035451.573 6        37.500    23412888.684 5  95871854.088 5        31.400    23412888.305 6  95871779.092 6        38.500    23412892.535 7  91877084.577 7        45.100
G15  25351575.859 5 133223474.783 5        34.400    25351597.531 3 103810614.025 3        22.500    25351597.109 5 103810530.034 5        33.700
G11  21840716.711 7 114773943.584 7        45.300    21840729.770 5  89434412.396 5        34.800    21840729.602 7  89434335.397 7        47.600    21840735.164 8  85707962.229 8        51.000
> 2025  3 11 11  5 30.0000000  0 12       -.000191675000
G05  21101767.648 7 110890741.759 7        47.300    21101784.840 7  86408512.084 7        46.900    21101784.910 7  86408425.083 7        47.500
G19  21750444.484 7 114299625.457 7        43.100    21750462.539 5  89064609.091 5        32.100
G20  20590462.250 7 108203915.801 7        47.000    20590474.770 6  84314833.473 6        39.500
G17  24164071.320 6 126983028.350 6        36.000    24164092.348 4  98947932.661 4        26.000    24164092.098 6  98947869.669 6        37.000
G12  21920377.641 7 115192354.864 7        45.600    21920396.500 7  89760393.462 7        42.500    21920396.414 7  89760346.464 7        44.900
G06  22788040.727 6 119752144.211 6        39.900    22788058.836 6  93313509.589 6        36.100    22788059.203 7  93313417.592 7        43.000    22788061.734 7  89425390.590 7        46.700
G09  24535965.813 5 128937392.492 5        30.800    24535982.598 3 100471108.854 3        22.000    24535981.848 6 100470993.865 6        36.300    24535983.535 6  96284765.102 6        38.500
G22  25203296.711 5 132444222.620 5        31.000
G13  23172246.641 6 121771155.946 6        38.100    23172267.703 3  94886592.041 3        20.400
G25  23412622.305 6 123034160.976 6        37.600    23412643.145 5  95870848.416 5        30.800    23412643.105 6  95870773.424 6        38.600    23412646.969 7  91876120.808 7        45.000
G15  25350823.195 5 133219521.896 5        34.100    25350845.172 3 103807533.871 3        22.000    25350845.242 5 103807449.881 5        33.700
G11  21840682.938 7 114773764.669 7        45.200    21840695.879 5  89434272.981 5        34.700    21840695.648 7  89434195.980 7        47.800    21840701.090 8  85707828.617 8        51.100
> 2025  3 11 11  5 31.0000000  0 12       -.000191916000
G05  21101455.023 7 110889100.613 7        47.600    21101472.426 7  86407233.273 7        46.400    21101472.535 7  86407146.276 7        47.800
G19  21750809.734 7 114301547.055 7        42.700    21750828.109 5  89066106.432 5        32.600
G20  20590568.258 7 108204473.990 7        47.000    20590581.008 6  84315268.427 6        39.700
G17  24164521.242 5 126985388.980 5        35.200    24164541.531 4  98949772.137 4        26.300    24164541.258 6  98949709.141 6        37.100
G12  21920439.227 7 115192676.371 7        45.600    21920457.609 7  89760643.982 7        42.600    21920457.707 7  89760596.983 7        44.700
G06  22788162.688 6 119752785.160 6        39.900    22788180.766 6  93314009.028 6        36.500    22788181.133 7  93313917.029 7        42.400    22788183.711 7  89425869.213 7        46.900
G09  24536339.828 5                        31.300    24536356.586 3                        22.300    24536355.949 6 100472525.219 6        36.100    24536357.324 6  96286232.675 6        38.600
G22  25203821.977 5                        30.100
G13  23171556.055 6 121767524.146 6        38.400    23171576.582 3  94883762.069 3        20.400
G25  23412377.648 6 123032870.886 6        38.000    23412397.691 5  95869843.154 5        30.700    23412397.719 6  95869768.159 6        38.400    23412401.484 7  91875157.429 7        45.000
G15  25350070.297 5 133215568.845 5        34.200    25350093.063 3 103804453.583 3        20.900    25350093.023 5 103804369.596 5        34.000
G11  21840648.594 7 114773585.741 7        45.200    21840661.828 5  89434133.555 5        34.900    21840661.504 7  89434056.552 7        47.600    21840667.074 8  85707695.000 8        51.400
> 2025  3 11 11  5 32.0000000  0 12       -.000192156000
G05  21101142.961 7 110887459.971 7        47.300    21101160.250 7  86405954.853 7        46.700    21101160.223 7  86405867.856 7        47.700
G19  21751175.273 7 114303469.119 7        42.900    21751193.758 5  89067604.148 5        32.000
G20  20590674.617 7 108205032.521 7        47.000    20590687.203 6  84315703.648 6        39.500
G17  24164969.898 5 126987749.885 5        35.900    24164990.738 4  98951611.826 4        26.800    24164990.613 6  98951548.838 6        36.800
G12  21920500.289 7 115192998.466 7        45.400    21920518.969 7  89760894.961 7        42.500    21920518.934 7  89760847.962 7        44.600
G06  22788284.617 6 119753426.119 6        40.000    22788302.742 5  93314508.470 5        35.900    22788303.121 7  93314416.473 7        42.700    22788305.785 7  89426347.850 7        47.000
G09  24536714.766 5 128941323.460 5        31.600    24536730.621 3 100474171.953 3        22.800    24536730.180 6 100474056.963 6        36.200    24536731.250 6  96287700.582 6        38.700
G22  25204346.523 5 132449740.864 5        30.700
G13  23170864.328 6 121763892.365 6        38.200    23170885.504 3  94880932.096 3        20.600
G25  23412131.875 6 123031581.385 6        37.700    23412152.297 5  95868838.352 5        31.200    23412152.590 6  95868763.352 6        38.500    23412156.105 7  91874194.487 7        45.200
G15  25349318.070 5 133211615.640 5        33.700    25349341.051 3 103801373.161 3        20.400    25349340.781 5 103801289.195 5        33.800
G11  21840614.492 7 114773406.848 7        45.200    21840627.734 5  89433994.155 5        35.000    21840627.473 7  89433917.156 7        47.400    21840633.023 8  85707561.413 8        51.100
> 2025  3 11 11  5 33.0000000  0 12       -.000192396000
G05  21100830.453 7 110885819.854 7        46.900    21100848.203 7  86404676.846 7        46.400    21100847.859 7  86404589.848 7        47.600
G19  21751541.695 7 114305391.667 7        43.000    21751559.668 5  89069102.228 5        32.100
G20  20590780.656 7 108205591.406 7        47.000    20590793.730 6  84316139.145 6        39.400
G17  24165418.883 5 126990111.116 5        35.600    24165440.051 4  98953451.777 4        26.300    24165440.445 6  98953388.770 6        36.700
G12  21920561.766 7 115193321.164 7        45.400    21920580.340 7  89761146.411 7        42.500    21920580.355 7  89761099.417 7        44.600
G06  22788406.477 6 119754067.102 6        39.600    22788424.859 5  93315007.936 5        35.900    22788424.855 7  93314915.933 7        42.500    22788427.750 7  89426826.499 7        46.700
G09  24537088.266 5 128943289.614 5        31.200    24537104.652 3 100475704.031 3        22.600    24537104.391 6 100475589.033 6        36.200    24537105.355 6  96289168.824 6        38.400
G22  25204870.727 5                        30.100
G13  23170172.844 6 121760260.616 6        38.000    23170194.262 3  94878102.170 3        21.300
G25  23411886.297 6 123030292.486 6        37.700    23411907.125 5  95867834.013 5        30.400    23411907.445 6  95867758.997 6        38.600    23411910.766 7  91873231.985 7        45.100
G15  25348565.352 5 133207662.327 5        33.500    25348588.820 3 103798292.693 3        20.600    25348588.766 5 103798208.702 5        33.500
G11  21840580.898 7 114773228.015 7        45.100    21840593.559 5  89433854.802 5        35.300    21840593.430 7  89433777.803 7        47.300    21840599.020 8  85707427.864 8        51.100
> 2025  3 11 11  5 34.0000000  0 12       -.000192636000
G05  21100518.797 7 110884180.225 7        46.900    21100536.180 7  86403399.218 7        46.500    21100535.992 7  86403312.222 7        47.500
G19  21751906.984 7 114307314.658 7        43.000    21751925.750 5  89070600.657 5        31.900
G20  20590887.508 7 108206150.617 7        47.000    20590900.078 6  84316574.894 6        39.500
G17  24165868.469 5 126992472.608 5        35.700    24165889.543 4  98955291.916 4        26.100    24165889.664 6  98955228.927 6        36.800
G12  21920623.602 7 115193644.444 7        45.400    21920641.879 7  89761398.316 7        42.500    21920641.738 7  89761351.315 7        44.700
G06  22788529.375 6 119754708.088 6        39.900    22788546.855 5  93315507.399 5        35.800    22788547.125 7  93315415.402 7        42.600    22788549.719 7  89427305.152 7        46.600
G09  24537462.102 5 128945256.205 5        31.300    24537478.973 3 100477236.453 3        22.800    24537478.660 6 100477121.444 6        36.300    24537479.563 6  96290637.385 6        38.400
G22  25205396.422 5                        30.700
G13  23169482.008 6 121756628.864 6        38.100    23169503.203 3  94875272.255 3        20.400
G25  23411641.328 6 123029004.130 6        37.900    23411661.969 5  95866830.079 5        30.600    23411662.000 6  95866755.079 6        38.500    23411665.707 7  91872269.891 7        45.100
G15  25347814.055 5 133203708.857 5        33.900    25347836.613 3 103795212.086 3        20.900    25347835.777 5 103795128.084 5        33.500
G11  21840546.391 7 114773049.200 7        45.300    21840559.508 5  89433715.467 5        35.200    21840559.309 7  89433638.463 7        47.500    21840564.934 8  85707294.333 8        50.900
> 2025  3 11 11  5 35.0000000  0 12       -.000192877000
G05  21100206.742 7 110882541.055 7        47.000    21100224.176 7  86402121.946 7        46.600    21100224.105 7  86402034.950 7        47.200
G19  21752272.977 7 114309238.072 7        42.900    21752291.754 5  89072099.421 5        32.700
G20  20590994.070 7 108206710.131 7        47.300    20591006.750 6  84317010.883 6        39.900
G17  24166317.711 5 126994834.362 5        35.900    24166338.945 4  98957132.263 4        26.900    24166338.652 6  98957069.273 6        36.800
G12  21920684.969 7 115193968.266 7        45.500    21920703.484 7  89761650.639 7        42.500    21920703.395 7  89761603.640 7        44.800
G06  22788651.359 6 119755349.048 6        40.000    22788668.871 5  93316006.840 5        35.500    22788669.094 7  93315914.847 7        42.500    22788671.703 7  89427783.787 7        46.700
G09  24537836.250 5 128947223.181 5        31.600    24537853.340 3 100478769.171 3        22.000    24537853.289 6 100478654.172 6        36.100    24537854.016 6  96292106.256 6        38.600
G22  25205920.398 5                        30.800
G13  23168790.977 6 121752997.075 6        37.900    23168812.113 3  94872442.286 3        20.600
G25  23411395.516 6 123027716.301 6        37.500    23411416.969 5  95865826.576 5        30.100    23411416.871 6  95865751.573 6        38.500    23411420.668 7  91871308.202 7        45.200
G15  25347062.383 5 133199755.233 5        34.100    25347084.277 3 103792131.324 3        21.100    25347083.410 5 103792047.351 5        33.400
G11  21840512.586 7 114772870.376 7        45.100    21840525.465 5  89433576.124 5        34.500    21840525.188 7  89433499.120 7        47.800    21840530.930 8  85707160.795 8        50.700
> 2025  3 11 11  5 36.0000000  0 12       -.000193115000
G05  21099894.750 7 110880902.370 7        46.900    21099912.434 7  86400845.054 7        46.400    21099912.359 7  86400758.057 7        47.300
G19  21752639.109 7 114311161.938 7        42.700    21752657.934 5  89073598.530 5        32.100
G20  20591100.375 7 108207269.980 7        47.200    20591113.203 6  84317447.130 6        40.000
G17  24166767.938 5 126997196.409 5        35.700    24166788.465 4  98958972.852 4        26.000    24166787.934 6  98958909.848 6        36.600
G12  21920746.477 7 115194292.679 7        45.500    21920765.117 7  89761903.424 7        42.100    21920765.074 7  89761856.424 7        44.600
G06  22788772.773 6 119755990.009 6        39.900    22788790.863 5  93316506.290 5        35.300    22788790.996 7  93316414.292 7        42.600    22788793.633 7  89428262.425 7        47.000
G09  24538210.492 5 128949190.613 5        31.500    24538227.762 3 100480302.224 3        22.500    24538227.555 6 100480187.223 6        36.100    24538228.414 6  96293575.430 6        38.600
G22  25206445.227 5                        30.500
G13  23168099.383 6 121749365.310 6        38.200    23168121.059 3  94869612.310 3        19.600
G25  23411150.211 6 123026429.048 6        37.500    23411172.051 4  95864823.515 4        29.700    23411172.211 6  95864748.514 6        38.600    23411175.523 7  91870346.934 7        45.300
G15  25346309.094 5 133195801.443 5        34.400    25346331.914 3 103789050.499 3        20.400    25346330.609 5 103788966.499 5        33.500
G11  21840478.336 7 114772691.581 7        45.300    21840491.609 5  89433436.806 5        34.700    21840491.109 7  89433359.802 7        47.800    21840496.879 8  85707027.281 8        50.800
> 2025  3 11 11  5 37.0000000  0 12       -.000193356000
G05  21099582.969 7 110879264.200 7        47.100    21099600.699 7  86399568.563 7        46.400    21099600.727 7  86399481.562 7        47.200
G19  21753004.695 7 114313086.271 7        42.800    21753024.258 5  89075098.007 5        32.100
G20  20591206.875 7 108207830.176 7        46.900    20591219.820 6  84317883.648 6        40.300
G17  24167217.578 5 126999558.755 5        35.700    24167237.859 4  98960813.646 4        26.300    24167237.473 6  98960750.655 6        36.600
G12  21920808.367 7 115194617.695 7        45.400    21920827.094 7  89762156.678 7        42.400    21920827.078 7  89762109.676 7        44.700
G06  22788894.344 6 119756631.006 6        39.900    22788912.730 5  93317005.761 5        35.800    22788913.016 7  93316913.762 7        42.600    22788915.605 7  89428741.082 7        46.800
G09  24538585.211 5 128951158.494 5        32.000    24538602.148 3 100481835.650 3        22.600    24538601.574 6 100481720.646 6        36.200    24538602.824 6  96295044.959 6        38.700
G22  25206971.188 4 132463533.775 4        29.900
G13  23167408.172 6 121745733.559 6        38.100    23167429.879 3  94866782.392 3        19.600
G25  23410906.063 6 123025142.396 6        37.400    23410927.141 4  95863820.922 4        29.700    23410927.355 6  95863745.924 6        38.500    23410930.754 7  91869386.117 7        44.800
G15  25345556.789 5 133191847.552 5        34.400    25345579.359 3 103785969.542 3        20.600    25345577.953 5 103785885.538 5        33.600
G11  21840444.695 7 114772512.844 7        45.400    21840457.414 5  89433297.532 5        35.200    21840457.395 7  89433220.524 7        47.500    21840462.910 8  85706893.806 8        50.900
> 2025  3 11 11  5 38.0000000  0 12       -.000193596000
G05  21099271.422 7 110877626.495 7        47.000    21099288.883 7  86398292.434 7        46.400    21099288.883 7  86398205.436 7        47.400
G19  21753371.633 7 114315011.033 7        42.700    21753390.336 5  89076597.821 5        32.400
G20  20591313.656 7 108208390.682 7        47.100    20591326.391 6  84318320.405 6        40.000
G17  24167667.023 5 127001921.360 5        35.800    24167687.422 4  98962654.659 4        26.900    24167687.012 6  98962591.671 6        36.500
G12  21920870.336 7 115194943.252 7        45.400    21920889.043 7  89762410.355 7        42.500    21920888.871 7  89762363.352 7        44.800
G06  22789016.227 6 119757271.989 6        39.900    22789034.727 5  93317505.225 5        35.700    22789035.043 7  93317413.222 7        42.600    22789037.574 7  89429219.729 7        47.000
G09  24538960.656 5 128953126.773 5        31.900    24538976.746 3 100483369.386 3        22.200    24538976.043 6 100483254.382 6        36.300    24538977.398 6  96296514.803 6        39.200
G22  25207496.414 5 132466291.847 5        30.700
G13  23166718.008 6 121742101.801 6        38.200    23166738.855 3  94863952.478 3        19.900
G25  23410661.000 6 123023856.272 6        37.300    23410682.520 5  95862818.748 5        30.800    23410682.523 6  95862743.745 6        38.400    23410686.063 7  91868425.694 7        44.700
G15  25344804.719 5 133187893.487 5        34.500    25344826.879 3 103782888.444 3        21.300    25344825.734 5 103782804.436 5        33.600
G11  21840410.367 7 114772334.108 7        45.100    21840423.484 5  89433158.249 5        34.500    21840423.266 7  89433081.248 7        47.600    21840428.918 8  85706760.332 8        50.900
> 2025  3 11 11  5 39.0000000  0 12       -.000193836000
G05  21098960.078 7 110875989.228 7        47.000    21098977.293 7  86397016.646 7        46.500    21098977.375 7  86396929.650 7        47.500
G19  21753737.563 7 114316936.182 7        43.000    21753756.723 5  89078097.932 5        31.200
G20  20591420.227 7 108208951.466 7        47.000    20591433.094 6  84318757.383 6        39.800
G17  24168116.359 5 127004284.202 5        35.900    24168136.984 4  98964495.860 4        25.700    24168136.418 6  98964432.859 6        37.000
G12  21920932.461 7 115195269.342 7        45.500    21920951.180 7  89762664.445 7        42.400    21920951.113 7  89762617.443 7        44.700
G06  22789138.555 6 119757912.906 6        39.900    22789156.820 5  93318004.637 5        35.800    22789156.875 7  93317912.640 7        42.600    22789159.637 7  89429698.339 7        47.200
G09  24539336.273 5 128955095.433 5        31.600    24539351.367 3 100484903.412 3        22.600    24539350.867 6 100484788.408 6        36.400    24539351.910 6  96297984.922 6        38.900
G22  25208020.578 4                        29.600
G13  23166026.070 6 121738469.989 6        38.000    23166047.781 3  94861122.500 3        19.900
G25  23410416.805 6 123022570.651 6        37.500    23410437.949 5  95861816.957 5        30.500    23410437.996 6  95861741.963 6        38.300    23410441.410 7  91867465.657 7        44.900
G15  25344052.594 5 133183939.217 5        33.700    25344074.355 3 103779807.208 3        21.800    25344073.441 5 103779723.211 5        33.200
G11  21840376.297 7 114772155.346 7        45.100    21840389.414 5  89433018.952 5        34.400    21840389.523 7  89432941.952 7        47.500    21840394.852 8  85706626.841 8        50.900
> 2025  3 11 11  5 40.0000000  0 12       -.000194075000
G05  21098648.602 7 110874352.440 7        47.000    21098665.867 7  86395741.235 7        46.600    21098666.113 7  86395654.235 7        47.200
G19  21754104.125 7 114318861.781 7        42.900    21754123.160 5  89079598.398 5        31.900
G20  20591527.188 7 108209512.572 7        46.900    20591539.918 6  84319194.612 6        39.700
G17  24168566.000 5 127006647.332 5        35.600    24168586.641 4  98966337.270 4        26.500    24168586.035 6  98966274.266 6        37.000
G12  21920994.789 7 115195596.003 7        45.600    21921013.242 7  89762918.983 7        42.400    21921013.133 7  89762871.983 7        44.400
G06  22789260.758 6 119758553.823 6        40.000    22789278.789 5  93318504.051 5        35.900    22789278.746 7  93318412.051 7        42.400    22789281.480 7  89430176.941 7        46.900
G09  24539711.148 5                        31.900    24539726.043 3                        23.200    24539725.418 6 100486322.762 6        36.000    24539726.648 6  96299455.336 6        38.800
G22  25208544.000 4 132471807.445 4        29.600
G13  23165335.219 6 121734838.179 6        38.200    23165356.641 3  94858292.513 3        19.600
G25  23410172.219 6 123021285.616 6        37.500    23410193.289 5  95860815.625 5        30.900    23410193.512 6  95860740.631 6        38.500    23410196.977 7  91866506.039 7        45.100
G15  25343299.852 5 133179984.797 5        33.700    25343321.828 3 103776725.854 3        21.300    25343320.977 5 103776641.840 5        32.700
G11  21840342.391 7 114771976.600 7        45.000    21840355.414 5  89432879.669 5        34.600    21840355.320 7  89432802.670 7        47.800    21840360.797 8  85706493.362 8        50.800
> 2025  3 11 11  5 41.0000000  0 12       -.000194315000
G05  21098337.297 7 110872716.147 7        47.200    21098354.559 7  86394466.205 7        46.700    21098354.672 7  86394379.204 7        47.000
G19  21754471.188 7 114320787.842 7        42.900    21754489.617 5  89081099.219 5        32.300
G20  20591633.766 7 108210074.017 7        47.000    20591646.762 6  84319632.102 6        39.700
G17  24169015.805 5 127009010.733 5        35.800    24169036.352 4  98968178.910 4        27.300    24169035.941 6  98968115.914 6        36.500
G12  21921057.273 7 115195923.250 7        45.100    21921075.539 7  89763173.981 7        42.300    21921075.508 7  89763126.977 7        44.500
G06  22789382.750 6 119759194.758 6        39.900    22789400.621 6  93319003.475 6        36.500    22789400.809 7  93318911.479 7        42.200    22789403.453 7  89430655.559 7        47.200
G09  24540084.664 5                        32.000    24540100.863 3                        23.300    24540099.914 5 100487857.460 5        35.700    24540101.473 6  96300926.098 6        38.700
G22  25209068.656 4                        29.600
G13  23164643.711 6 121731206.371 6        37.800    23164665.539 3  94855462.529 3        20.100
G25  23409927.680 6 123020001.142 6        37.300    23409948.848 4  95859814.736 4        29.900    23409948.504 6  95859739.738 6        38.400    23409952.570 7  91865546.849 7        44.600
G15  25342547.555 5 133176030.238 5        33.500    25342569.246 3 103773644.388 3        21.100    25342568.625 5 103773560.369 5        32.900
G11  21840308.500 7 114771797.894 7        45.100    21840321.492 5  89432740.421 5        34.600    21840321.066 7  89432663.415 7        47.400    21840326.859 8  85706359.909 8        50.700
> 2025  3 11 11  5 42.0000000  0 12       -.000194555000
G05  21098025.711 7 110871080.342 7        47.000    21098043.207 7  86393191.555 7        46.500    21098043.418 7  86393104.556 7        47.000
G19  21754837.547 7 114322714.362 7        42.800    21754856.234 5  89082600.397 5        32.200
G20  20591740.461 7 108210635.805 7        47.000    20591753.805 6  84320069.861 6        39.700
G17  24169465.148 5 127011374.432 5        35.900    24169486.176 4  98970020.780 4        26.000    24169485.695 6  98969957.785 6        37.200
G12  21921119.305 7 115196251.094 7        45.300    21921137.941 7  89763429.438 7        42.100    21921137.578 7  89763382.432 7        44.400
G06  22789505.469 6 119759835.707 6        40.000    22789522.527 6  93319502.910 6        36.200    22789523.105 7  93319410.915 7        42.600    22789525.379 7  89431134.183 7        47.000
G09  24540458.305 5                        31.200    24540475.680 3                        22.800    24540474.762 5 100489392.532 5        35.500    24540476.406 6  96302397.198 6        39.100
G22  25209592.664 4                        29.400
G13  23163952.945 6 121727574.589 6        38.200    23163974.484 3  94852632.574 3        20.100
G25  23409682.977 6 123018717.242 6        37.500    23409704.543 5  95858814.291 5        30.400    23409704.066 6  95858739.291 6        38.600    23409708.234 7  91864588.087 7        44.600
G15  25341794.852 5 133172075.534 5        33.200    25341816.707 3 103770562.797 3        21.100    25341815.621 5 103770478.799 5        32.700
G11  21840274.469 7 114771619.223 7        45.300    21840287.414 5  89432601.194 5        34.500    21840287.266 8  89432524.189 8        48.000    21840292.844 8  85706226.482 8        50.600
> 2025  3 11 11  5 43.0000000  0 12       -.000194796000
G05  21097714.742 7 110869444.985 7        47.100    21097732.141 7  86391917.255 7        46.500    21097732.012 7  86391830.255 7        47.300
G19  21755204.055 7 114324641.295 7        43.000    21755222.961 5  89084101.903 5        31.900
G20  20591847.539 7 108211197.880 7        46.900    20591860.695 6  84320507.842 6        39.600
G17  24169915.750 5 127013738.386 5        35.900    24169936.008 4  98971862.855 4        26.300    24169935.391 6  98971799.850 6        37.000
G12  21921181.797 7 115196579.478 7        45.500    21921200.355 7  89763685.313 7        42.200    21921200.422 7  89763638.310 7        44.700
G06  22789626.781 6 119760476.613 6        40.200    22789644.496 6  93320002.320 6        36.600    22789645.293 7  93319910.328 7        42.700    22789647.418 7  89431612.781 7        47.200
G09  24540833.633 5 128962974.378 5        31.000    24540850.672 3 100491042.871 3        22.800    24540849.559 5 100490927.884 5        35.400    24540851.391 6  96303868.584 6        39.000
G22  25210118.719 4 132480079.661 4        29.400
G13  23163262.344 6 121723942.766 6        37.600    23163283.219 3  94849802.591 3        20.400
G25  23409439.445 6 123017433.866 6        37.300    23409460.406 5  95857814.259 5        31.100    23409460.148 6  95857739.264 6        38.400    23409464.008 7  91863629.724 7        44.900
G15  25341042.188 5 133168120.667 5        33.100    25341064.102 3 103767481.096 3        20.900    25341063.637 5 103767397.098 5        33.200
G11  21840240.352 7 114771440.541 7        45.300    21840253.477 5  89432461.958 5        35.400    21840253.336 8  89432384.956 8        48.000    21840258.844 8  85706093.050 8        50.500
> 2025  3 11 11  5 44.0000000  0 12       -.000195036000
G05  21097403.867 7 110867810.111 7        47.400    21097420.867 7  86390643.334 7        46.700    21097420.918 7  86390556.335 7        46.800
G19  21755570.773 7 114326568.669 7        42.700    21755589.656 5  89085603.749 5        31.900
G20  20591954.852 7 108211760.267 7        47.000    20591967.648 6  84320946.065 6        39.700
G17  24170365.492 6 127016102.606 6        36.200    24170385.809 4  98973705.125 4        26.700    24170385.418 6  98973642.109 6        37.000
G12  21921244.359 7 115196908.416 7        45.500    21921262.984 7  89763941.624 7        42.400    21921262.996 7  89763894.623 7        44.700
G06  22789749.070 6 119761117.515 6        40.100    22789766.480 6  93320501.723 6        36.000    22789766.813 7  93320409.726 7        42.600    22789769.441 7  89432091.372 7        47.300
G09  24541208.258 5                        30.300    24541225.637 3                        21.800    24541224.676 5 100492463.571 5        35.400    24541226.418 6  96305340.274 6        38.900
G22  25210644.352 4 132482836.672 4        29.600
G13  23162570.945 6 121720310.944 6        37.900    23162591.988 3  94846972.592 3        19.900
G25  23409195.422 6 123016151.047 6        37.500    23409216.340 5  95856814.651 5        30.600    23409216.441 6  95856739.650 6        38.500    23409219.895 7  91862671.761 7        44.800
G15  25340288.430 5 133164165.624 5        32.800    25340311.410 3 103764399.241 3        19.900    25340311.109 5 103764315.260 5        33.200
G11  21840206.266 7 114771261.868 7        45.300    21840219.402 5  89432322.725 5        34.200    21840219.258 8  89432245.729 8        48.100    21840224.805 8  85705959.622 8        50.600
> 2025  3 11 11  5 45.0000000  0 12       -.000195276000
G05  21097092.734 7 110866175.754 7        47.200    21097110.012 7  86389369.812 7        46.700    21097109.867 7  86389282.816 7        47.000
G19  21755937.516 7 114328496.505 7        43.000    21755956.469 5  89087105.953 5        32.000
G20  20592061.664 7 108212322.999 7        47.000    20592074.762 6  84321384.561 6        39.500
G17  24170814.938 5 127018467.128 5        35.800    24170835.746 4  98975547.614 4        26.500    24170835.281 6  98975484.625 6        36.700
G12  21921307.227 7 115197237.951 7        45.200    21921325.773 7  89764198.399 7        42.800    21921325.684 7  89764151.399 7        44.900
G06  22789871.289 6 119761758.443 6        39.800    22789888.367 6  93321001.143 6        36.600    22789888.719 7  93320909.135 7        42.600    22789891.316 7  89432569.977 7        47.300
G09  24541583.156 5 128966916.408 5        30.500    24541600.488 3 100494114.595 3        22.600    24541599.664 5 100493999.611 5        35.600    24541601.594 6  96306812.307 6        38.800
G22  25211168.922 4 132485593.65414        29.400
G13  23161879.648 6 121716679.140 6        37.900    23161900.777 3  94844142.610 3        20.100
G25  23408951.641 6 123014868.800 6        37.300    23408972.199 5  95855815.491 5        31.400    23408972.367 6  95855740.489 6        38.400    23408975.906 7  91861714.237 7        44.600
G15  25339535.930 5 133160210.462 5        32.900    25339558.773 3 103761317.340 3        19.900    25339558.457 5 103761233.337 5        33.100
G11  21840172.563 7 114771083.237 7        45.200    21840185.438 5  89432183.536 5        34.800    21840185.254 8  89432106.536 8        48.500    21840190.801 8  85705826.233 8        50.800
> 2025  3 11 11  5 46.0000000  0 12       -.000195517000
G05  21096781.836 7 110864541.910 7        47.600    21096798.973 7  86388096.694 7        46.900    21096798.852 7  86388009.696 7        46.800
G19  21756304.656 7 114330424.840 7        42.600    21756323.387 5  89088608.548 5        32.000
G20  20592169.266 7 108212886.113 7        47.000    20592181.875 6  84321823.353 6        39.500
G17  24171265.320 5 127020831.976 5        35.800    24171285.863 4  98977390.379 4        27.600    24171285.242 6  98977327.388 6        36.600
G12  21921369.891 7 115197568.105 7        45.400    21921388.574 7  89764455.659 7        42.200    21921388.668 7  89764408.655 7        44.200
G06  22789992.758 6 119762399.403 6        39.900    22790010.273 6  93321500.583 6        36.400    22790010.500 7  93321408.588 7        42.900    22790013.301 7  89433048.615 7        47.200
G09  24541958.805 5 128968888.090 5        30.800    24541975.828 3 100495650.982 3        21.800    24541974.766 6 100495535.996 6        36.100    24541976.805 6  96308284.691 6        38.900
G22  25211693.047 4 132488350.448 4        29.100
G13  23161188.891 6 121713047.373 6        37.400    23161209.891 3  94841312.677 3        20.400
G25  23408707.539 6 123013587.164 6        37.600    23408728.250 5  95854816.807 5        31.300    23408728.250 6  95854741.810 6        38.500    23408731.992 7  91860757.167 7        44.700
G15  25338783.055 5 133156255.197 5        32.400    25338806.090 3 103758235.326 3        20.900    25338805.875 5 103758151.326 5        33.300
G11  21840138.219 7 114770904.677 7        45.000    21840151.617 5  89432044.397 5        35.000    21840151.438 8  89431967.394 8        48.800    21840156.863 8  85705692.888 8        51.000
> 2025  3 11 11  5 47.0000000  0 12       -.000195755000
G05  21096470.922 7 110862908.522 7        47.800    21096488.207 7  86386823.929 7        46.600    21096488.242 7  86386736.930 7        47.000
G19  21756671.664 7 114332353.591 7        42.600    21756690.559 5  89090111.466 5        31.400
G20  20592276.289 7 108213449.515 7        47.000    20592289.066 6  84322262.366 6        39.600
G17  24171715.352 5 127023197.069 5        35.400    24171735.797 4  98979233.341 4        25.600    24171735.234 6  98979170.344 6        36.800
G12  21921432.859 7 115197898.806 7        45.600    21921451.422 7  89764713.339 7        42.300    21921451.348 7  89764666.344 7        44.300
G06  22790114.539 6 119763040.332 6        40.200    22790132.238 6  93322000.005 6        36.300    22790132.629 7  93321908.012 7        42.700    22790135.223 7  89433527.225 7        46.900
G09  24542333.953 5                        31.600    24542351.215 3                        22.000    24542350.105 5 100497072.700 5        35.800    24542352.109 6  96309757.370 6        39.100
G22  25212216.953 4 132491107.068 4        28.000
G13  23160497.289 6 121709415.598 6        37.500    23160518.801 3  94838482.728 3        20.400
G25  23408463.469 6 123012306.059 6        37.400    23408484.551 5  95853818.538 5        31.100    23408484.746 6  95853743.544 6        38.300    23408488.258 7  91859800.490 7        45.000
G15  25338031.078 5 133152299.758 5        32.800    25338053.492 3 103755153.163 3        20.900    25338053.215 5 103755069.172 5        33.700
G11  21840104.547 7 114770726.103 7        45.100    21840117.652 5  89431905.250 5        34.600    21840117.117 8  89431828.248 8        48.200    21840122.879 8  85705559.537 8        51.100
> 2025  3 11 11  5 48.0000000  0 12       -.000195995000
G05  21096160.156 7 110861275.630 7        47.200    21096177.492 7  86385551.552 7        46.800    21096177.441 7  86385464.551 7        47.300
G19  21757038.641 7 114334282.792 7        42.600    21757057.570 5  89091614.733 5        31.000
G20  20592383.758 7 108214013.257 7        47.000    20592396.355 6  84322701.648 6        39.900
G17  24172165.203 5 127025562.463 5        35.300    24172185.965 4  98981076.523 4        26.700    24172185.422 6  98981013.523 6        37.000
G12  21921496.188 7 115198230.090 7        45.800    21921514.582 7  89764971.483 7        42.400    21921514.656 7  89764924.479 7        44.500
G06  22790236.500 6 119763681.268 6        40.200    22790254.238 6  93322499.429 6        36.100    22790254.598 7  93322407.430 7        42.600    22790257.230 7  89434005.842 7        47.000
G09  24542709.859 5 128972832.765 5        30.500    24542726.559 3 100498724.791 3        22.600    24542725.863 5 100498609.727 5        35.700    24542727.629 6  96311230.347 6        39.000
G22  25212742.242 4 132493863.521 4        29.100
G13  23159806.141 6 121705783.803 6        37.600    23159827.691 3  94835652.758 3        19.900
G25  23408219.734 6 123011025.523 6        37.800    23408240.953 5  95852820.716 5        30.700    23408240.984 6  95852745.713 6        38.200    23408244.469 7  91858844.236 7        45.100
G15  25337278.852 5 133148344.167 5        33.300    25337300.848 3 103752070.901 3        19.900    25337300.652 5 103751986.917 5        33.600
G11  21840069.945 7 114770547.559 7        45.400    21840083.465 5  89431766.126 5        34.300    21840083.238 8  89431689.123 8        48.000    21840088.855 8  85705426.210 8        50.800
> 2025  3 11 11  5 49.0000000  0 12       -.000196236000
G05  21095849.469 7 110859643.213 7        47.000    21095866.852 7  86384279.541 7        46.500    21095866.992 7  86384192.544 7        47.500
G19  21757405.430 7 114336212.429 7        42.700    21757424.840 5  89093118.345 5        31.800
G20  20592491.094 7 108214577.306 7        47.000    20592503.695 6  84323141.173 6        40.300
G17  24172614.734 5 127027928.123 5        35.500    24172636.168 4  98982919.918 4        26.800    24172635.609 6  98982856.913 6        37.100
G12  21921559.617 7 115198561.938 7        45.900    21921577.746 7  89765230.060 7        42.400    21921577.680 7  89765183.059 7        44.600
G06  22790358.078 6 119764322.199 6        40.000    22790376.316 6  93322998.862 6        36.100    22790376.473 7  93322906.855 7        42.300    22790379.285 7  89434484.458 7        46.900
G09  24543084.500 5 128974805.67015        31.000    24543101.871 3 100500262.11913        22.800    24543101.320 6 100500147.120 6        36.100    24543103.301 6  96312703.691 6        39.200
G22  25213266.773 4 132496619.809 4        29.100
G13  23159114.313 6 121702152.011 6        37.000    23159136.488 3  94832822.773 3        19.900
G25  23407976.086 6 123009745.532 6        37.700    23407997.355 5  95851823.310 5        31.200    23407997.258 6  95851748.314 6        38.500    23408000.953 7  91857888.396 7        44.700
G15  25336525.422 5 133144388.428 5        33.300    25336548.137 3 103748988.535 3        19.600    25336547.672 5 103748904.522 5        33.400
G11  21840036.180 7 114770369.030 7        45.600    21840049.531 5  89431627.012 5        35.000    21840049.625 8  89431550.006 8        48.100    21840054.879 8  85705292.889 8        50.900
> 2025  3 11 11  5 50.0000000  0 12       -.000196476000
G05  21095539.125 7 110858011.298 7        47.200    21095556.266 7  86383007.925 7        46.800    21095556.059 7  86382920.925 7        47.300
G19  21757773.156 7 114338142.535 7        42.500    21757792.098 5  89094622.318 5        31.800
G20  20592598.344 7 108215141.709 7        47.000    20592611.004 6  84323580.969 6        40.200
G17  24173064.922 5 127030294.077 5        35.500    24173086.477 4  98984763.538 4        24.700    24173085.633 6  98984700.546 6        37.100
G12  21921622.891 7 115198894.384 7        45.400    21921640.945 7  89765489.104 7        42.700    21921641.098 7  89765442.103 7        44.600
G06  22790479.820 6 119764963.146 6        40.200    22790498.207 6  93323498.293 6        36.900    22790498.500 7  93323406.291 7        42.600    22790501.145 7  89434963.080 7        47.400
G09  24543459.156 4 128976779.089 4        29.600    24543477.328 3 100501799.844 3        22.000    24543476.680 6 100501684.843 6        36.200    24543478.797 6  96314177.336 6        39.600
G22  25213790.906 4 132499375.940 4        28.000
G13  23158423.188 6 121698520.252 6        36.900    23158445.344 3  94829992.840 3        20.400
G25  23407733.063 6 123008466.129 6        37.300    23407754.102 5  95850826.367 5        30.500    23407754.027 6  95850751.372 6        37.900    23407757.539 7  91856932.988 7        44.900
G15  25335772.930 5 133140432.563 5        33.700    25335795.297 3 103745906.036 3        20.100    25335794.953 5 103745822.044 5        33.100
G11  21840002.742 7 114770190.545 7        45.000    21840015.602 5  89431487.925 5        34.600    21840015.598 8  89431410.926 8        48.100    21840020.941 8  85705159.606 8        51.000
> 2025  3 11 11  5 51.0000000  0 12       -.000196716000
G05  21095228.570 7 110856379.834 7        47.200    21095245.754 7  86381736.657 7        46.500    21095245.859 7  86381649.662 7        47.500
G19  21758140.672 7 114340073.052 7        42.600    21758159.441 5  89096126.616 5        31.500
G20  20592705.414 7 108215706.394 7        46.800    20592718.617 6  84324020.981 6        39.900
G17  24173515.469 5 127032660.262 5        35.700    24173536.746 4  98986607.345 4        25.300    24173536.066 6  98986544.344 6        36.900
G12  21921685.859 7 115199227.363 7        45.500    21921704.352 7  89765748.564 7        42.800    21921704.465 7  89765701.565 7        44.800
G06  22790602.453 6 119765604.044 6        39.900    22790620.113 6  93323997.693 6        36.700    22790620.578 7  93323905.697 7        42.600    22790623.160 7  89435441.676 7        47.200
G09  24543835.516 5 128978752.904 5        30.500    24543852.949 3 100503337.881 3        21.700    24543852.523 6 100503222.868 6        36.600    24543854.516 6  96315651.271 6        39.700
G22  25214316.453 4                        28.600
G13  23157732.438 6 121694888.443 6        38.000    23157754.242 3  94827162.880 3        20.400
G25  23407489.703 6 123007187.237 6        37.500    23407510.512 5  95849829.827 5        30.000    23407510.344 6  95849754.828 6        38.100    23407514.172 7  91855977.973 7        45.100
G15  25335020.719 5 133136476.509 5        34.300    25335042.492 3 103742823.422 3        20.400    25335042.133 5 103742739.408 5        33.000
G11  21839968.711 7 114770012.047 7        44.900    21839981.594 5  89431348.839 5        34.900    21839981.551 8  89431271.831 8        48.000    21839986.992 8  85705026.305 8        51.000
> 2025  3 11 11  5 52.0000000  0 12       -.000196957000
G05  21094918.453 7 110854748.824 7        47.100    21094935.426 7  86380465.748 7        46.600    21094935.473 7  86380378.746 7        47.600
G19  21758508.016 7 114342003.981 7        42.600    21758526.859 5  89097631.234 5        31.900
G20  20592813.234 7 108216271.365 7        47.000    20592826.078 6  84324461.223 6        39.900
G17  24173965.023 5 127035026.709 5        35.500    24173987.023 4  98988451.355 4        25.800    24173986.016 6  98988388.355 6        37.000
G12  21921748.961 7 115199560.883 7        45.200    21921767.836 7  89766008.445 7        42.600    21921767.863 7  89765961.448 7        44.800
G06  22790724.367 6 119766244.922 6        40.000    22790742.117 6  93324497.072 6        36.700    22790742.547 7  93324405.079 7        42.900    22790745.074 7  89435920.248 7        47.200
G09  24544211.469 5 128980727.04015        31.000    24544228.508 3 100504876.15413        22.200    24544228.215 6 100504761.176 6        36.300    24544230.180 6  96317125.493 6        39.700
G22  25214841.133 4 132504887.666 4        29.600
G13  23157041.750 6 121691256.609 6        37.700    23157063.117 3  94824332.915 3        19.600
G25  23407246.031 6 123005908.859 6        37.200    23407267.145 4  95848833.689 4        29.700    23407266.770 6  95848758.693 6        38.600    23407270.906 7  91855023.340 7        45.100
G15  25334267.758 5 133132520.282 5        34.000    25334289.430 3 103739740.620 3        20.600    25334288.996 5 103739656.647 5        33.000
G11  21839934.789 7 114769833.528 7        45.200    21839947.633 5  89431209.731 5        34.800    21839947.613 8  89431132.726 8        48.000    21839953.004 8  85704892.997 8        50.600
> 2025  3 11 11  5 53.0000000  0 12       -.000197197000
G05  21094608.031 7 110853118.257 7        47.300    21094625.055 7  86379195.179 7        47.000    21094624.977 7  86379108.181 7        47.500
G19  21758875.383 7 114343935.318 7        42.400    21758894.375 5  89099136.164 5        31.600
G20  20592920.586 7 108216836.621 7        47.000    20592933.738 6  84324901.681 6        39.900
G17  24174415.852 6 127037393.397 6        36.300    24174437.316 4  98990295.537 4        25.500    24174436.492 6  98990232.522 6        36.900
G12  21921812.430 7 115199894.938 7        45.100    21921831.238 7  89766268.743 7        42.200    21921831.453 7  89766221.741 7        44.600
G06  22790846.398 6 119766885.758 6        39.900    22790864.070 6  93324996.421 6        36.800    22790864.137 7  93324904.423 7        42.900    22790867.059 7  89436398.783 7        47.100
G09  24544588.016 5 128982701.585 5        31.900    24544604.223 3 100506414.777 3        22.500    24544604.336 6 100506299.806 6        36.700    24544605.957 6  96318600.012 6        39.500
G22  25215364.953 4 132507643.227 4        29.100
G13  23156350.633 6 121687624.737 6        38.300    23156372.043 3  94821502.862 3        20.100
G25  23407002.828 6 123004631.026 6        37.300    23407024.020 4  95847837.976 4        29.400    23407023.734 6  95847762.966 6        38.300    23407027.758 7  91854069.101 7        45.100
G15  25333514.797 5 133128563.861 5        34.200    25333536.520 3 103736657.730 3        21.100    25333535.773 5 103736573.712 5        33.700
G11  21839900.969 7 114769654.987 7        45.100    21839913.609 5  89431070.606 5        34.900    21839913.414 8  89430993.606 8        48.300    21839919.023 8  85704759.670 8        50.600
> 2025  3 11 11  5 54.0000000  0 12       -.000197435000
G05  21094297.742 7 110851488.135 7        47.200    21094314.898 7  86377924.957 7        46.700    21094314.801 7  86377837.958 7        47.500
G19  21759242.883 7 114345867.057 7        42.500    21759261.910 5  89100641.413 5        32.700
G20  20593028.375 7 108217402.161 7        46.900    20593041.176 6  84325342.362 6        39.800
G17  24174866.813 6 127039760.293 6        36.300    24174887.672 4  98992139.899 4        26.800    24174886.785 6  98992076.898 6        36.900
G12  21921876.156 7 115200229.530 7        45.500    21921894.969 7  89766529.456 7        42.100    21921894.891 7  89766482.458 7        44.500
G06  22790967.867 6 119767526.543 6        40.000    22790986.004 6  93325495.730 6        36.300    22790986.105 7  93325403.733 7        42.400    22790988.910 7  89436877.286 7        47.200
G09  24544964.148 5 128984676.564 5        31.800    24544979.848 3 100507953.737 3        22.500    24544979.785 6 100507838.722 6        36.400    24544981.750 6  96320074.810 6        39.000
G22  25215888.531 4                        29.600
G13  23155659.852 6 121683992.833 6        37.600    23155680.914 3  94818672.826 3        20.400
G25  23406759.641 6 123003353.703 6        37.300    23406781.039 5  95846842.643 5        30.400    23406780.660 6  95846767.652 6        38.700    23406784.598 7  91853115.250 7        44.500
G15  25332761.453 5 133124607.240 5        34.600    25332783.492 3 103733574.638 3        20.400    25332783.695 5 103733490.652 5        33.500
G11  21839867.031 7 114769476.431 7        45.200    21839879.656 5  89430931.469 5        35.200    21839879.648 8  89430854.469 8        48.400    21839885.047 8  85704626.330 8        50.700
> 2025  3 11 11  5 55.0000000  0 12       -.000197676000
G05  21093987.375 7 110849858.565 7        47.200    21094004.836 7  86376655.167 7        46.600    21094004.723 7  86376568.169 7        47.600
G19  21759610.641 7 114347799.301 7        42.600    21759629.633 5  89102147.054 5        31.600
G20  20593135.750 7 108217968.090 7        46.800    20593148.949 6  84325783.347 6        39.500
G17  24175317.883 6 127042127.550 6        36.200    24175338.250 4  98993984.529 4        26.800    24175337.313 6  98993921.539 6        37.000
G12  21921940.336 7 115200564.754 7        45.200    21921958.930 7  89766790.667 7        42.300    21921958.457 7  89766743.669 7        44.500
G06  22791090.594 6 119768167.393 6        40.100    22791107.957 6  93325995.086 6        36.400    22791108.824 7  93325903.089 7        42.300    22791110.891 7  89437355.840 7        47.300
G09  24545339.977 5 128986651.988 5        31.500    24545355.785 3 100509493.024 3        22.600    24545355.754 6 100509378.030 6        36.600    24545357.668 6  96321549.973 6        39.400
G22  25216412.422 4 132513153.808 4        28.300
G13  23154969.000 6 121680360.974 6        38.300    23154989.766 3  94815842.785 3        21.500
G25  23406516.375 6 123002077.010 6        37.500    23406538.148 5  95845847.812 5        30.500    23406537.809 6  95845772.818 6        39.000    23406541.707 7  91852161.868 7        44.600
G15  25332009.141 5 133120650.549 5        34.700    25332030.625 3 103730491.534 3        20.600    25332030.918 5 103730407.518 5        34.100
G11  21839833.117 7 114769297.959 7        45.500    21839845.828 5  89430792.402 5        34.600    21839845.805 8  89430715.399 8        48.200    21839851.078 8  85704493.053 8        50.800
> 2025  3 11 11  5 56.0000000  0 12       -.000197916000
G05  21093677.266 7 110848229.479 7        47.000    21093694.820 7  86375385.755 7        46.500    21093694.645 7  86375298.756 7        47.500
G19  21759978.766 7 114349732.004 7        42.800    21759997.516 5  89103653.053 5        31.500
G20  20593243.664 7 108218534.350 7        46.800    20593256.691 6  84326224.589 6        39.700
G17  24175768.758 5 127044495.084 5        35.500    24175788.707 4  98995829.393 4        27.100    24175788.449 6  98995766.400 6        37.100
G12  21922004.297 7 115200900.557 7        45.800    21922022.688 7  89767052.326 7        42.100    21922022.551 7  89767005.328 7        44.300
G06  22791212.430 6 119768808.246 6        39.800    22791229.918 6  93326494.453 6        36.100    22791230.527 7  93326402.456 7        42.500    22791232.746 7  89437834.393 7        47.000
G09  24545715.031 5 128988627.832 5        31.500    24545731.742 3 100511032.654 3        22.300    24545731.707 6 100510917.671 6        36.500    24545733.742 6  96323025.458 6        39.600
G22  25216938.078 4 132515908.917 4        29.100
G13  23154277.984 6 121676729.140 6        38.500    23154298.598 3  94813012.778 3        21.300
G25  23406274.594 6 123000800.861 6        37.200    23406295.262 5  95844853.411 5        30.400    23406295.078 6  95844778.421 6        38.900    23406298.813 7  91851208.904 7        45.100
G15  25331256.516 5 133116693.700 5        34.300    25331277.766 3 103727408.288 3        20.100    25331277.594 5 103727324.271 5        34.000
G11  21839799.070 7 114769119.512 7        45.300    21839811.918 5  89430653.350 5        35.100    21839811.773 7  89430576.349 7        47.800    21839817.098 8  85704359.799 8        51.100
> 2025  3 11 11  5 57.0000000  0 12       -.000198156000
G05  21093367.031 7 110846600.841 7        47.100    21093384.867 7  86374116.693 7        46.200    21093384.617 7  86374029.692 7        47.300
G19  21760346.820 7 114351665.110 7        42.500    21760365.566 5  89105159.362 5        31.500
G20  20593351.625 7 108219100.891 7        46.800    20593364.359 6  84326666.048 6        40.000
G17  24176219.664 6 127046862.872 6        36.600    24176239.223 4  98997674.451 4        27.000    24176238.563 6  98997611.433 6        36.900
G12  21922068.297 7 115201236.894 7        45.400    21922086.777 7  89767314.406 7        42.500    21922086.637 7  89767267.407 7        44.600
G06  22791334.016 6 119769449.060 6        40.000    22791351.805 6  93326993.782 6        36.200    22791352.078 7  93326901.788 7        42.300    22791354.684 7  89438312.917 7        47.000
G09  24546091.633 5 128990604.104 5        31.300    24546107.773 3 100512572.624 3        22.500    24546107.691 6 100512457.589 6        36.200    24546109.730 6  96324501.221 6        39.300
G22  25217462.047 4 132518663.786 4        29.400
G13  23153586.734 6 121673097.256 6        38.400    23153607.535 3  94810182.738 3        20.600
G25  23406031.156 6 122999525.247 6        37.100    23406052.594 5  95843859.426 5        30.000    23406052.207 6  95843784.431 6        39.200    23406056.227 7  91850256.330 7        44.900
G15  25330504.492 5 133112736.659 5        34.200    25330524.871 3 103724324.890 3        20.600    25330524.703 5 103724240.874 5        34.300
G11  21839764.914 7 114768941.046 7        45.200    21839777.855 5  89430514.286 5        34.400    21839777.785 8  89430437.283 8        48.000    21839783.180 8  85704226.526 8        51.100
> 2025  3 11 11  5 58.0000000  0 12       -.000198397000
G05  21093057.523 7 110844972.662 7        47.200    21093074.973 7  86372847.984 7        46.500    21093074.922 7  86372760.985 7        47.300
G19  21760714.406 7 114353598.640 7        42.600    21760733.457 5  89106666.000 5        31.300
G20  20593459.484 7 108219667.728 7        46.800    20593472.441 6  84327107.744 6        39.900
G17  24176669.602 6 127049230.891 6        36.300    24176689.816 4  98999519.670 4        26.000    24176689.230 6  98999456.678 6        37.200
G12  21922132.453 7 115201573.787 7        45.100    21922150.813 7  89767576.916 7        42.400    21922150.676 7  89767529.913 7        44.400
G06  22791456.711 6 119770089.844 6        40.000    22791473.766 6  93327493.090 6        36.600    22791474.129 7  93327401.091 7        42.300    22791476.684 7  89438791.419 7        46.800
G09  24546467.563 5 128992580.72415        31.300    24546484.020 3 100514112.86013        22.600    24546483.813 6 100513997.865 6        36.200    24546485.824 6  96325977.316 6        39.400
G22  25217984.781 4 132521418.474 4        29.400
G13  23152896.555 6 121669465.351 6        38.400    23152916.289 3  94807352.709 3        20.100
G25  23405788.961 6 122998250.169 6        37.500    23405809.973 5  95842865.862 5        30.300    23405809.887 6  95842790.856 6        39.000    23405813.559 7  91849304.159 7        45.200
G15  25329750.617 5 133108779.440 5        34.600    25329772.020 3 103721241.334 3        21.100    25329771.926 5 103721157.351 5        34.300
G11  21839731.359 7 114768762.577 7        45.100    21839743.945 5  89430375.219 5        35.000    21839743.602 8  89430298.214 8        48.100    21839749.160 8  85704093.252 8        51.100
> 2025  3 11 11  5 59.0000000  0 12       -.000198637000
G05  21092747.836 7 110843344.965 7        47.500    21092765.324 7  86371579.653 7        46.400    21092765.203 7  86371492.657 7        46.800
G19  21761082.242 7 114355532.613 7        42.400    21761101.504 5  89108172.993 5        31.500
G20  20593567.617 7 108220234.890 7        47.000    20593580.266 6  84327549.687 6        39.900
G17  24177119.773 6 127051599.206 6        36.200    24177140.516 4  99001365.134 4        26.000    24177140.152 6  99001302.136 6        36.900
G12  21922196.320 7 115201911.246 7        45.100    21922215.098 7  89767839.864 7        42.600    21922215.117 7  89767792.864 7        44.800
G06  22791578.672 6 119770730.628 6        40.100    22791595.746 6  93327992.393 6        36.600    22791595.980 7  93327900.401 7        42.300    22791598.652 7  89439269.918 7        47.200
G09  24546844.117 5                        30.700    24546860.379 3                        22.600    24546860.141 6 100515538.464 6        36.200    24546862.016 6  96327453.717 6        39.200
G22  25218509.477 5 132524173.019 5        30.100
G13  23152203.805 6 121665833.439 6        38.200    23152225.074 3  94804522.639 3        20.100
G25  23405546.258 6 122996975.649 6        37.500    23405567.559 5  95841872.715 5        30.200    23405567.492 6  95841797.722 6        38.800    23405571.016 7  91848352.398 7        45.100
G15  25328997.883 5 133104822.081 5        35.500    25329019.008 3 103718157.710 3        21.700    25329018.922 5 103718073.684 5        33.900
G11  21839696.859 7 114768584.128 7        45.200    21839709.949 5  89430236.166 5        34.600    21839709.578 7  89430159.160 7        47.900    21839715.215 8  85703959.994 8        50.900
> 2025  3 11 11  6  0.0000000  0 12       -.000198875000
G05  21092438.375 7 110841717.760 7        47.300    21092455.602 7  86370311.704 7        46.700    21092455.660 7  86370224.710 7        47.200
G19  21761450.289 7 114357467.052 7        42.400    21761469.477 5  89109680.341 5        31.900
G20  20593675.516 7 108220802.398 7        46.900    20593688.234 6  84327991.905 6        39.900
G17  24177570.484 6 127053967.805 6        36.200    24177591.129 4  99003210.822 4        26.800    24177590.953 6  99003147.823 6        36.900
G12  21922260.672 7 115202249.299 7        45.300    21922279.461 7  89768103.278 7        42.500    21922279.219 7  89768056.277 7        44.900
G06  22791700.000 6 119771371.418 6        40.200    22791717.758 6  93328491.713 6        36.600    22791717.738 7  93328399.721 7        42.600    22791720.652 7  89439748.429 7        46.800
G09  24547219.750 5 128996535.316 5        30.800    24547236.594 3 100517194.359 3        22.300    24547236.715 6 100517079.363 6        36.700    24547238.391 6  96328930.428 6        39.600
G22  25219033.945 4 132526927.424 4        29.900
G13  23151513.477 6 121662201.551 6        38.400    23151534.086 3  94801692.597 3        20.600
G25  23405303.703 6 122995701.701 6        37.200    23405325.078 5  95840880.027 5        30.700    23405325.000 6  95840805.028 6        38.800    23405328.656 7  91847401.066 7        45.500
G15  25328245.016 5 133100864.604 5        35.900    25328265.836 3 103715073.957 3        21.800    25328265.941 5 103714989.949 5        34.200
G11  21839663.031 7 114768405.716 7        45.100    21839675.887 5  89430097.139 5        34.800    21839675.559 7  89430020.137 7        47.900    21839681.242 8  85703826.761 8        51.200
> 2025  3 11 11  6  1.0000000  0 12       -.000199116000
G05  21092128.602 7 110840091.102 7        47.300    21092146.070 7  86369044.185 7        46.500    21092146.082 7  86368957.190 7        47.100
G19  21761818.422 7 114359401.983 7        42.400    21761837.539 5  89111188.077 5        31.600
G20  20593783.680 7 108221370.274 7        47.000    20593796.316 6  84328434.407 6        39.800
G17  24178021.180 6 127056336.717 6        36.300    24178041.930 4  99005056.744 4        27.200    24178041.914 6  99004993.760 6        36.900
G12  21922325.273 7 115202587.972 7        45.600    21922343.938 6  89768367.174 6        41.800    21922343.766 7  89768320.169 7        45.100
G06  22791822.336 6 119772012.251 6        39.800    22791839.910 5  93328991.062 5        35.900    22791839.996 7  93328899.071 7        42.600    22791842.480 7  89440226.977 7        46.800
G09  24547595.711 5 128998513.281 5        30.700    24547613.102 3 100518735.650 3        23.200    24547612.949 6 100518620.667 6        37.100    24547614.898 6  96330407.500 6        39.400
G22  25219558.164 5 132529681.697 5        30.800
G13  23150822.344 6 121658569.713 6        38.800    23150843.027 3  94798862.600 3        20.400
G25  23405060.727 6 122994428.365 6        37.500    23405082.738 5  95839887.816 5        30.200    23405082.598 6  95839812.807 6        39.200    23405086.434 7  91846450.193 7        45.200
G15  25327491.555 6 133096907.021 6        36.600    25327512.590 3 103711990.127 3        22.000    25327512.461 5 103711906.131 5        34.200
G11  21839628.852 7 114768227.373 7        45.400    21839641.879 5  89429958.171 5        34.800    21839641.727 8  89429881.166 8        48.000    21839647.320 8  85703693.582 8        51.300
> 2025  3 11 11  6  2.0000000  0 12       -.000199356000
G05  21091819.359 7 110838464.912 7        47.200    21091836.660 7  86367777.029 7        46.700    21091836.609 7  86367690.034 7        47.300
G19  21762187.086 7 114361337.345 7        42.600    21762205.906 5  89112696.148 5        31.800
G20  20593891.797 7 108221938.462 7        46.900    20593904.391 6  84328877.153 6        39.700
G17  24178472.281 6 127058705.925 6        36.000    24178492.734 4  99006902.910 4        26.700    24178493.117 6  99006839.897 6        36.900
G12  21922389.352 7 115202927.201 7        45.400    21922408.387 7  89768631.504 7        42.300    21922408.191 7  89768584.501 7        44.900
G06  22791944.078 6 119772653.088 6        40.000    22791961.762 5  93329490.413 5        35.900    22791961.957 7  93329398.421 7        42.700    22791964.418 7  89440705.519 7        46.800
G09  24547972.203 5 129000491.676 5        31.000    24547989.547 3 100520277.262 3        23.600    24547989.656 6 100520162.275 6        36.700    24547991.469 6  96331884.880 6        39.600
G22  25220083.211 5 132532435.800 5        31.000
G13  23150131.234 6 121654937.867 6        38.700    23150151.945 3  94796032.571 3        20.100
G25  23404819.383 6 122993155.581 6        37.600    23404840.488 5  95838896.025 5        31.000    23404840.070 6  95838821.027 6        38.800    23404844.207 7  91845499.729 7        45.200
G15  25326738.828 6 133092949.284 6        36.800    25326759.305 3 103708906.184 3        22.300    25326758.984 5 103708822.176 5        34.300
G11  21839594.969 7 114768049.036 7        46.000    21839608.066 5  89429819.208 5        34.500    21839607.758 7  89429742.205 7        47.900    21839613.434 8  85703560.412 8        51.400
> 2025  3 11 11  6  3.0000000  0 12       -.000199596000
G05  21091509.898 7 110836839.231 7        47.800    21091527.207 7  86366510.270 7        46.500    21091527.090 7  86366423.271 7        47.200
G19  21762555.367 7 114363273.187 7        42.800    21762574.281 5  89114204.591 5        30.900
G20  20593999.922 7 108222507.009 7        47.000    20594012.629 6  84329320.181 6        40.100
G17  24178922.852 6 127061075.421 6        36.200    24178943.496 4  99008749.292 4        27.600    24178943.453 6  99008686.282 6        36.800
G12  21922453.922 7 115203267.031 7        45.500    21922473.133 7  89768896.301 7        42.100    21922472.883 7  89768849.301 7        44.700
G06  22792065.500 6 119773293.937 6        40.000    22792083.746 5  93329989.773 5        35.600    22792083.914 7  93329897.783 7        42.900    22792086.398 7  89441184.072 7        47.100
G09  24548349.695 5 129002470.545 5        31.000    24548366.184 3 100521819.246 3        22.600    24548365.914 6 100521704.261 6        37.100    24548368.074 6  96333362.607 6        39.700
G22  25220606.367 5 132535189.731 5        30.700
G13  23149439.680 6 121651306.056 6        38.400    23149460.855 3  94793202.621 3        20.100
G25  23404577.102 6 122991883.372 6        37.200    23404598.352 5  95837904.686 5        30.300    23404598.328 6  95837829.694 6        38.900    23404602.129 7  91844549.700 7        45.100
G15  25325986.477 6 133088991.417 6        36.900    25326006.141 3 103705822.129 3        22.500    25326006.305 5 103705738.129 5        33.400
G11  21839560.930 7 114767870.750 7        46.000    21839574.172 5  89429680.287 5        34.200    21839573.820 7  89429603.282 7        47.800    21839579.461 8  85703427.273 8        51.100
> 2025  3 11 11  6  4.0000000  0 12       -.000199835000
G05  21091200.344 7 110835214.032 7        47.600    21091217.961 7  86365243.887 7        46.000    21091217.906 7  86365156.888 7        46.700
G19  21762923.539 7 114365209.474 7        42.800    21762942.875 5  89115713.377 5        30.700
G20  20594108.242 7 108223075.877 7        47.000    20594120.832 6  84329763.456 6        39.800
G17  24179374.039 6 127063445.193 6        36.600    24179394.313 4  99010595.883 4        27.100    24179394.207 6  99010532.881 6        36.700
G12  21922518.836 7 115203607.438 7        45.300    21922538.016 6  89769161.549 6        41.500    21922537.758 7  89769114.551 7        44.300
G06  22792187.953 6 119773934.791 6        40.100    22792205.488 5  93330489.134 5        35.400    22792206.172 7  93330397.142 7        42.600    22792208.426 7  89441662.629 7        47.300
G09  24548725.023 5                        31.500    24548742.797 3                        23.300    24548742.836 6 100523246.552 6        36.900    24548744.801 6  96334840.631 6        39.900
G22  25221129.313 5 132537943.547 5        30.500
G13  23148749.016 6 121647674.242 6        38.600    23148769.660 3  94790372.637 3        19.600
G25  23404335.578 6 122990611.735 6        37.300    23404356.371 5  95836913.799 5        30.700    23404356.211 6  95836838.798 6        38.800    23404360.105 7  91843600.092 7        45.100
G15  25325232.703 6 133085033.415 6        36.300    25325252.906 3 103702737.983 3        22.300    25325253.262 5 103702653.959 5        33.700
G11  21839526.688 7 114767692.492 7        45.800    21839540.332 5  89429541.382 5        34.300    21839539.965 7  89429464.371 7        47.800    21839545.566 8  85703294.154 8        51.000
> 2025  3 11 11  6  5.0000000  0 12       -.000200075000
G05  21090891.930 7 110833589.368 7        47.100    21090908.875 7  86363977.919 7        46.500    21090908.793 7  86363890.922 7        46.600
G19  21763292.313 7 114367146.271 7        42.400    21763311.422 5  89117222.568 5        30.400
G20  20594216.352 7 108223645.123 7        46.900    20594229.125 6  84330207.025 6        39.400
G17  24179825.234 6 127065815.283 6        36.300    24179845.371 4  99012442.732 4        26.900    24179845.355 6  99012379.746 6        36.900
G12  21922583.766 7 115203948.477 7        45.200    21922602.711 6  89769427.289 6        41.900    21922602.625 7  89769380.283 7        44.100
G06  22792310.617 6 119774575.709 6        40.100    22792327.457 6  93330988.552 6        36.200    22792327.992 7  93330896.552 7        42.600    22792330.313 7  89442141.229 7        47.000
G09  24549103.289 5                        31.200    24549119.570 3                        22.900    24549119.688 6 100524789.208 6        36.500    24549121.578 6  96336319.031 6        39.900
G22  25221654.414 5 132540697.244 5        31.200
G13  23148057.391 6 121644042.494 6        39.000    23148078.598 3  94787542.703 3        19.900
G25  23404093.844 6 122989340.703 6        37.500    23404114.406 5  95835923.371 5        30.700    23404114.512 6  95835848.380 6        38.600    23404118.297 7  91842650.942 7        44.800
G15  25324479.117 5 133081075.315 5        35.400    25324499.762 3 103699653.732 3        22.600    25324499.914 5 103699569.736 5        33.900
G11  21839492.969 7 114767514.306 7        45.600    21839506.449 5  89429402.530 5        34.400    21839506.023 8  89429325.528 8        48.100    21839511.672 8  85703161.096 8        50.500
> 2025  3 11 11  6  6.0000000  0 12       -.000200315000
G05  21090582.313 7 110831965.214 7        47.200    21090599.754 7  86362712.350 7        46.300    21090599.570 7  86362625.349 7        47.000
G19  21763660.797 7 114369083.522 7        42.300    21763679.992 5  89118732.110 5        31.000
G20  20594324.594 7 108224214.703 7        46.800    20594337.566 6  84330650.852 6        39.400
G17  24180276.047 6 127068185.689 6        36.000    24180296.414 4  99014289.825 4        28.100    24180296.211 6  99014226.833 6        36.900
G12  21922648.914 7 115204290.098 7        45.200    21922667.719 7  89769693.481 7        42.000    21922667.617 7  89769646.477 7        44.500
G06  22792432.211 6 119775216.630 6        40.100    22792449.418 6  93331487.964 6        36.400    22792450.074 7  93331395.963 7        42.900    22792452.301 7  89442619.829 7        46.700
G09  24549480.469 5                        31.200    24549496.371 3                        23.900    24549496.645 6 100526332.240 6        36.900    24549498.375 6  96337797.753 6        39.700
G22  25222178.266 5 132543450.792 5        30.700
G13  23147365.969 6 121640410.766 6        38.600    23147387.547 3  94784712.802 3        20.100
G25  23403851.297 6 122988070.248 6        37.100    23403872.742 4  95834933.400 4        29.600    23403872.824 6  95834858.411 6        38.700    23403876.473 7  91841702.217 7        45.400
G15  25323725.898 5 133077117.068 5        35.400    25323746.449 3 103696569.418 3        22.300    25323746.813 5 103696485.405 5        33.800
G11  21839459.117 7 114767336.152 7        44.900    21839472.688 5  89429263.705 5        34.700    21839472.234 8  89429186.708 8        48.100    21839477.762 8  85703028.056 8        50.900
> 2025  3 11 11  6  7.0000000  0 12       -.000200556000
G05  21090273.516 7 110830341.530 7        47.500    21090290.793 7  86361447.145 7        46.600    21090290.844 7  86361360.149 7        47.000
G19  21764029.375 7 114371021.205 7        42.500    21764048.617 5  89120241.988 5        31.500
G20  20594432.852 7 108224784.596 7        47.000    20594446.020 6  84331094.925 6        39.600
G17  24180726.383 6 127070556.357 6        36.000    24180747.430 4  99016137.129 4        26.300    24180747.387 6  99016074.124 6        37.000
G12  21922714.156 7 115204632.280 7        45.500    21922732.914 7  89769960.114 7        42.500    21922732.820 7  89769913.115 7        44.600
G06  22792553.570 6 119775857.545 6        39.900    22792571.547 6  93331987.368 6        36.700    22792572.449 7  93331895.368 7        43.200    22792574.285 7  89443098.430 7        46.900
G09  24549856.414 5 129010390.390 5        31.300    24549873.324 3 100527990.555 3        22.800    24549873.625 6 100527875.579 6        36.900    24549875.148 6  96339276.797 6        39.800
G22  25222702.391 5 132546204.145 5        31.200
G13  23146675.695 6 121636779.034 6        38.600    23146696.375 3  94781882.868 3        20.400
G25  23403609.891 6 122986800.344 6        37.300    23403631.055 5  95833943.870 5        30.400    23403631.199 6  95833868.880 6        38.900    23403634.918 7  91840753.911 7        45.200
G15  25322972.070 5 133073158.678 5        35.100    25322993.102 3 103693484.972 3        22.200    25322993.863 5 103693400.969 5        34.200
G11  21839425.094 7 114767158.014 7        44.900    21839438.793 5  89429124.901 5        34.400    21839438.238 8  89429047.896 8        48.000    21839443.883 8  85702895.030 8        51.000
> 2025  3 11 11  6  8.0000000  0 12       -.000200796000
G05  21089964.453 7 110828718.301 7        47.300    21089981.840 7  86360182.298 7        46.600    21089981.563 7  86360095.303 7        47.200
G19  21764397.961 7 114372959.315 7        42.500    21764417.383 5  89121752.195 5        30.600
G20  20594541.570 7 108225354.798 7        47.000    20594554.422 6  84331539.241 6        40.100
G17  24181177.563 6 127072927.275 6        36.300    24181198.645 4  99017984.611 4        25.700    24181199.004 6  99017921.615 6        37.500
G12  21922779.703 7 115204975.012 7        45.700    21922798.098 7  89770227.172 7        42.600    21922798.199 7  89770180.174 7        44.200
G06  22792675.820 6 119776498.433 6        40.000    22792693.520 6  93332486.757 6        36.200    22792694.051 7  93332394.757 7        43.200    22792696.207 7  89443577.014 7        47.000
G09  24550232.797 5 129012371.43015        31.200    24550250.430 3 100529534.22913        23.300    24550250.738 6 100529419.222 6        36.600    24550252.156 6  96340756.133 6        39.700
G22  25223226.984 5 132548957.323 5        31.000
G13  23145984.289 6 121633147.270 6        38.300    23146005.273 3  94779052.913 3        20.600
G25  23403368.164 6 122985530.981 6        37.300    23403389.641 5  95832954.751 5        31.000    23403389.430 6  95832879.753 6        39.100    23403393.387 7  91839806.004 7        45.500
G15  25322218.938 5 133069200.100 5        35.400    25322239.680 3 103690400.362 3        22.200    25322240.316 5 103690316.365 5        34.200
G11  21839391.195 7 114766979.875 7        45.300    21839404.875 5  89428986.095 5        34.800    21839404.188 7  89428909.087 7        47.900    21839409.988 8  85702762.003 8        51.300
> 2025  3 11 11  6  9.0000000  0 12       -.000201036000
G05  21089655.586 7 110827095.541 7        47.300    21089673.078 7  86358917.818 7        46.500    21089673.098 7  86358830.818 7        47.600
G19  21764767.148 7 114374897.843 7        42.300    21764786.438 5  89123262.740 5        30.900
G20  20594650.406 7 108225925.292 7        46.700    20594663.074 6  84331983.783 6        39.800
G17  24181629.250 6 127075298.447 6        36.800    24181649.840 4  99019832.307 4        26.400    24181649.836 6  99019769.307 6        37.200
G12  21922845.000 7 115205318.300 7        45.600    21922863.465 7  89770494.663 7        42.400    21922863.402 7  89770447.666 7        44.500
G06  22792797.148 6 119777139.298 6        39.700    22792815.516 5  93332986.124 5        35.500    22792816.031 7  93332894.126 7        42.700    22792818.184 7  89444055.575 7        47.200
G09  24550609.430 5 129014352.835 5        32.600    24550627.539 3 100531078.199 3        23.000    24550627.363 6 100530963.178 6        36.600    24550629.234 6  96342235.755 6        39.700
G22  25223749.578 5 132551710.312 5        31.200
G13  23145293.164 6 121629515.491 6        38.100    23145314.176 3  94776222.980 3        21.100
G25  23403126.047 6 122984262.141 6        37.200    23403148.262 4  95831966.035 4        29.800    23403148.238 6  95831891.050 6        38.700    23403151.930 7  91838858.494 7        45.200
G15  25321465.539 5 133065241.354 5        35.500    25321486.375 3 103687315.640 3        22.300    25321486.688 5 103687231.634 5        33.800
G11  21839357.430 7 114766801.731 7        45.100    21839370.863 5  89428847.275 5        34.600    21839370.461 7  89428770.277 7        47.900    21839376.070 8  85702628.973 8        51.200
> 2025  3 11 11  6 10.0000000  0 12       -.000201277000
G05  21089347.023 7 110825473.206 7        47.500    21089364.430 7  86357653.663 7        44.400    21089364.379 7  86357566.665 7        45.600
G19  21765135.773 7 114376836.770 7        42.100    21765155.367 4  89124773.588 4        28.700
G20  20594758.633 7 108226496.066 7        46.800    20594771.688 6  84332428.541 6        37.500
G17  24182080.484 6 127077669.848 6        36.000    24182100.891 4  99021680.177 4        25.200    24182101.148 5  99021617.175 5        35.800
G12  21922910.461 7 115205662.113 7        45.600    21922928.859 6  89770762.568 6        40.300    21922929.016 7  89770715.569 7        43.000
G06  22792919.445 6 119777780.116 6        40.100    22792937.445 5  93333485.456 5        34.200    22792938.223 6  93333393.458 6        40.900    22792940.129 7  89444534.101 7        47.000
G09  24550987.398 5 129016334.629 5        31.800    24551004.594 3 100532622.425 3        21.700    24551004.461 5 100532507.446 5        34.600    24551006.398 6  96343715.678 6        39.200
G22  25224274.039 5 132554463.107 5        30.100
G13  23144602.055 6 121625883.665 6        38.400    23144623.016 3  94773392.993 3        20.600
G25  23402885.227 6 122982993.822 6        37.100    23402906.965 4  95830977.734 4        28.800    23402906.813 6  95830902.756 6        37.000    23402910.477 7  91837911.371 7        44.600
G15  25320712.688 5 133061282.417 5        35.700    25320733.059 3 103684230.764 3        21.700    25320733.199 5 103684146.750 5        32.800
G11  21839323.883 7 114766623.564 7        45.000    21839336.805 5  89428708.441 5        32.800    21839336.566 7  89428631.442 7        46.200    21839342.188 8  85702495.925 8        50.700
> 2025  3 11 11  6 11.0000000  0 12       -.000201515000
G05  21089038.461 7 110823851.324 7        47.100    21089055.797 7  86356389.863 7        45.100    21089055.645 7  86356302.869 7        46.200
G19  21765505.352 7 114378776.115 7        42.200    21765524.473 5  89126284.757 5        30.400
G20  20594867.570 7 108227067.133 7        46.800    20594880.285 6  84332873.529 6        37.900
G17  24182532.508 5 127080041.488 5        35.900    24182552.082 4  99023528.222 4        24.100    24182552.031 5  99023465.236 5        35.700
G12  21922975.719 7 115206006.470 7        45.400    21922994.402 6  89771030.891 6        40.900    21922994.207 7  89770983.890 7        42.900
G06  22793041.734 6 119778420.896 6        39.900    22793059.410 5  93333984.769 5        35.000    22793060.203 6  93333892.767 6        40.900    22793062.027 7  89445012.605 7        47.200
G09  24551365.406 5 129018316.810 5        31.800    24551381.734 3 100534167.010 3        21.100    24551381.152 5 100534052.019 5        34.100    24551383.500 6  96345195.885 6        38.900
G22  25224796.148 5 132557215.700 5        30.300
G13  23143910.234 6 121622251.824 6        37.600    23143931.863 3  94770562.981 3        20.400
G25  23402644.117 6 122981726.049 6        37.400    23402665.691 4  95829989.858 4        29.600    23402665.555 6  95829914.863 6        37.100    23402669.387 7  91836964.643 7        45.000
G15  25319958.727 5 133057323.297 5        35.700    25319979.758 3 103681145.742 3        22.000    25319980.074 5 103681061.748 5        32.900
G11  21839289.781 7 114766445.393 7        45.000    21839302.848 5  89428569.608 5        33.500    21839302.762 7  89428492.604 7        46.200    21839308.289 8  85702362.871 8        51.000
> 2025  3 11 11  6 12.0000000  0 12       -.000201756000
G05  21088729.930 7 110822229.890 7        47.900    21088747.043 7  86355126.414 7        45.900    21088747.355 7  86355039.417 7        46.800
G19  21765874.891 7 114380715.871 7        42.100    21765893.656 5  89127796.253 5        31.000
G20  20594976.203 7 108227638.482 7        46.800    20594989.195 6  84333318.737 6        38.800
G17  24182983.688 5 127082413.367 5        35.700    24183003.555 4  99025376.471 4        26.300    24183003.680 6  99025313.475 6        36.200
G12  21923041.586 7 115206351.360 7        45.300    21923060.094 6  89771299.633 6        41.500    21923060.254 7  89771252.629 7        44.100
G06  22793163.859 6 119779061.639 6        40.100    22793181.305 5  93334484.042 5        35.400    22793181.602 6  93334392.044 6        41.700    22793184.027 7  89445491.078 7        47.100
G09  24551743.016 5 129020299.386 5        31.600    24551758.867 3 100535711.873 3        21.100    24551758.238 5 100535596.874 5        35.400    24551760.547 6  96346676.392 6        39.400
G22  25225320.234 5 132559968.095 5        30.300
G13  23143219.242 6 121618619.935 6        37.300    23143240.914 3  94767732.936 3        19.900
G25  23402403.039 6 122980458.774 6        36.900    23402424.457 4  95829002.369 4        29.000    23402424.609 6  95828927.368 6        38.100    23402428.195 7  91836018.299 7        44.900
G15  25319205.727 5 133053364.000 5        35.500    25319226.418 3 103678060.576 3        23.800    25319226.598 5 103677976.587 5        33.400
G11  21839255.852 7 114766267.195 7        44.800    21839268.891 5  89428430.749 5        34.200    21839268.887 7  89428353.750 7        46.900    21839274.395 8  85702229.803 8        50.900
> 2025  3 11 11  6 13.0000000  0 12       -.000201996000
G05  21088421.352 7 110820608.916 7        47.900    21088438.672 7  86353863.320 7        45.800    21088438.641 7  86353776.320 7        47.100
G19  21766243.828 7 114382656.026 7        42.200    21766262.828 4  89129308.069 4        29.600
G20  20595085.039 7 108228210.118 7        46.800    20595097.813 6  84333764.167 6        39.200
G17  24183435.422 6 127084785.505 6        36.500    24183455.078 4  99027224.908 4        26.800    24183455.063 6  99027161.910 6        36.700
G12  21923107.031 7 115206696.785 7        45.000    21923125.730 6  89771568.791 6        41.300    21923125.996 7  89771521.789 7        44.500
G06  22793285.023 6 119779702.343 6        40.200    22793303.281 5  93334983.288 5        35.700    22793303.754 7  93334891.288 7        42.500    22793305.879 7  89445969.523 7        47.200
G09  24552119.086 5 129022282.344 5        31.800    24552136.176 3 100537257.037 3        22.200    24552135.676 5 100537142.043 5        35.700    24552137.965 6  96348157.176 6        39.400
G22  25225844.391 4 132562720.281 4        29.400
G13  23142527.914 6 121614988.013 6        37.600    23142549.742 3  94764902.867 3        19.900
G25  23402161.852 6 122979192.031 6        37.600    23402183.516 5  95828015.297 5        30.000    23402183.539 6  95827940.298 6        38.400    23402187.281 7  91835072.350 7        45.000
G15  25318452.094 5 133049404.515 5        35.900    25318473.055 3 103674975.270 3        22.900    25318473.195 5 103674891.287 5        34.100
G11  21839221.789 7 114766088.991 7        45.100    21839235.059 5  89428291.886 5        34.200    21839235.035 7  89428214.885 7        47.300    21839240.406 8  85702096.725 8        50.700
> 2025  3 11 11  6 14.0000000  0 12       -.000202236000
G05  21088112.977 7 110818988.468 7        47.300    21088130.328 7  86352600.639 7        45.000    21088130.516 7  86352513.642 7        46.700
G19  21766613.180 7 114384596.678 7        42.600    21766632.156 5  89130820.253 5        30.200
G20  20595193.609 7 108228782.117 7        46.800    20595206.684 6  84334209.884 6        38.700
G17  24183886.852 6 127087157.952 6        36.400    24183906.555 4  99029073.584 4        25.600    24183906.273 6  99029010.592 6        36.200
G12  21923172.891 7 115207042.815 7        45.000    21923191.637 6  89771838.418 6        40.600    21923191.848 7  89771791.421 7        43.700
G06  22793407.234 6 119780343.097 6        39.900    22793425.207 5  93335482.580 5        35.200    22793425.625 7  93335390.575 7        42.400    22793427.879 7  89446447.999 7        47.000
G09  24552496.789 5 129024265.761 5        31.600    24552513.430 3 100538802.567 3        21.300    24552513.012 5 100538687.581 5        34.800    24552515.344 6  96349638.317 6        39.600
G22  25226368.531 4 132565472.337 4        29.600
G13  23141836.398 6 121611356.139 6        37.800    23141858.465 3  94762072.822 3        19.900
G25  23401921.484 6 122977925.901 6        37.100    23401942.484 4  95827028.689 4        29.600    23401942.438 6  95826953.705 6        37.900    23401946.242 7  91834126.856 7        45.100
G15  25317699.148 5 133045444.939 5        35.700    25317719.629 3 103671889.884 3        21.700    25317719.828 5 103671805.901 5        33.200
G11  21839187.977 7 114765910.850 7        45.200    21839201.215 5  89428153.072 5        34.000    21839201.250 7  89428076.073 7        47.000    21839206.535 8  85701963.697 8        50.600
> 2025  3 11 11  6 15.0000000  0 12       -.000202477000
G05  21087804.391 7 110817368.556 7        47.000    21087822.082 7  86351338.375 7        45.000    21087822.301 7  86351251.378 7        46.300
G19  21766982.617 7 114386537.838 7        42.500    21767001.496 4  89132332.834 4        29.800
G20  20595302.898 7 108229354.493 7        46.800    20595315.684 6  84334655.891 6        38.300
G17  24184338.141 6 127089530.725 6        36.100    24184358.027 4  99030922.527 4        26.800    24184357.586 6  99030859.528 6        36.200
G12  21923238.797 7 115207389.482 7        45.400    21923257.777 6  89772108.543 6        40.100    21923257.645 7  89772061.551 7        43.400
G06  22793529.773 6 119780983.898 6        40.100    22793547.094 6  93335981.901 6        36.100    22793547.613 6  93335889.895 6        41.600    22793549.754 7  89446926.517 7        47.100
G09  24552875.625 5 129026249.676 5        32.000    24552890.918 3 100540348.479 3        21.500    24552890.625 5 100540233.497 5        34.900    24552892.816 6  96351119.803 6        39.400
G22  25226891.758 5 132568224.310 5        30.500
G13  23141145.719 6 121607724.324 6        38.200    23141167.336 3  94759242.870 3        19.900
G25  23401680.789 6 122976660.376 6        37.100    23401701.613 4  95826042.561 4        29.800    23401701.434 6  95825967.561 6        37.300    23401705.469 7  91833181.815 7        45.200
G15  25316945.641 5 133041485.256 5        35.800    25316966.051 3 103668804.435 3        22.000    25316966.090 5 103668720.446 5        33.600
G11  21839154.078 7 114765732.783 7        45.700    21839167.410 5  89428014.321 5        33.600    21839167.148 7  89427937.316 7        47.200    21839172.684 8  85701830.720 8        50.800
> 2025  3 11 11  6 16.0000000  0 12       -.000202715000
G05  21087496.375 7 110815749.115 7        47.000    21087513.840 7  86350076.478 7        45.100    21087514.082 7  86349989.480 7        46.400
G19  21767352.125 7 114388479.438 7        42.500    21767370.992 5  89133845.766 5        30.200
G20  20595411.750 7 108229927.183 7        47.000    20595424.609 6  84335102.146 6        38.100
G17  24184789.055 5 127091903.784 5        35.200    24184809.656 4  99032771.685 4        25.600    24184809.086 6  99032708.687 6        36.400
G12  21923304.672 7 115207736.714 7        45.100    21923323.852 6  89772379.111 6        40.600    21923323.590 7  89772332.111 7        43.400
G06  22793651.742 6 119781624.688 6        40.200    22793669.023 5  93336481.212 5        35.600    22793669.859 6  93336389.215 6        41.900    22793671.691 7  89447405.027 7        47.000
G09  24553252.695 5 129028233.992 5        32.200    24553268.504 3 100541894.700 3        22.300    24553268.285 5 100541779.717 5        34.900    24553270.570 6  96352601.610 6        39.000
G22  25227414.672 4 132570976.111 4        29.400
G13  23140455.211 6 121604092.502 6        38.200    23140476.184 3  94756412.868 3        19.000
G25  23401439.773 6 122975395.400 6        37.000    23401460.891 4  95825056.863 4        29.100    23401460.602 6  95824981.868 6        37.100    23401464.727 7  91832237.191 7        45.000
G15  25316192.141 5 133037525.420 5        35.100    25316212.539 3 103665718.868 3        21.300    25316212.313 5 103665634.861 5        32.900
G11  21839120.484 7 114765554.726 7        45.000    21839133.539 5  89427875.571 5        33.900    21839133.332 7  89427798.573 7        47.400    21839138.797 8  85701697.755 8        50.400
> 2025  3 11 11  6 17.0000000  0 12       -.000202955000
G05  21087188.305 7 110814130.191 7        47.000    21087205.738 7  86348814.983 7        45.200    21087205.930 7  86348727.986 7        46.700
G19  21767721.039 7 114390421.517 7        42.500    21767740.480 5  89135359.077 5        30.300
G20  20595520.727 7 108230500.228 7        47.000    20595533.625 6  84335548.672 6        38.600
G17  24185240.781 5 127094277.144 5        35.900    24185261.227 4  99034621.072 4        24.300    24185260.754 6  99034558.071 6        36.300
G12  21923371.070 7 115208084.552 7        45.200    21923390.027 6  89772650.150 6        41.300    21923389.797 7  89772603.150 7        43.900
G06  22793773.531 6 119782265.512 6        40.400    22793790.934 5  93336980.551 5        35.400    22793791.430 7  93336888.546 7        42.600    22793793.684 7  89447883.557 7        47.300
G09  24553631.195 5 129030218.753 5        32.400    24553646.246 3 100543441.277 3        22.600    24553645.586 5 100543326.292 5        35.000    24553648.316 6  96354083.746 6        39.400
G22  25227938.719 4 132573727.777 4        29.400
G13  23139763.977 6 121600460.728 6        38.700    23139785.031 3  94753582.913 3        19.000
G25  23401199.047 6 122974131.017 6        37.000    23401220.383 5  95824071.623 5        30.400    23401220.156 6  95823996.632 6        38.200    23401224.211 7  91831293.004 7        45.500
G15  25315438.273 5 133033565.483 5        35.000    25315458.816 3 103662633.211 3        21.100    25315458.316 5 103662549.202 5        33.100
G11  21839086.641 7 114765376.724 7        45.100    21839099.617 5  89427736.868 5        34.300    21839099.293 7  89427659.868 7        47.500    21839104.879 8  85701564.831 8        50.500
> 2025  3 11 11  6 18.0000000  0 12       -.000203196000
G05  21086880.648 7 110812511.728 7        47.100    21086897.730 7  86347553.849 7        46.200    21086897.703 7  86347466.850 7        47.600
G19  21768090.734 7 114392364.024 7        42.300    21768110.199 5  89136872.717 5        31.500
G20  20595630.000 7 108231073.575 7        47.000    20595642.703 6  84335995.440 6        39.000
G17  24185692.992 5 127096650.761 5        35.900    24185712.848 4  99036470.673 4        26.300    24185712.352 6  99036407.674 6        36.900
G12  21923437.750 7 115208432.948 7        45.300    21923456.238 6  89772921.621 6        41.800    21923456.168 7  89772874.618 7        44.600
G06  22793896.008 6 119782906.312 6        40.900    22793912.797 6  93337479.869 6        36.600    22793913.258 7  93337387.870 7        43.200    22793915.633 7  89448362.074 7        47.300
G09  24554008.227 5 129032203.928 5        32.300    24554023.926 3 100544988.171 3        22.600    24554023.520 5 100544873.199 5        35.500    24554026.152 6  96355566.199 6        39.200
G22  25228463.078 4 132576479.262 4        29.900
G13  23139073.641 6 121596828.956 6        38.800    23139093.887 3  94750752.967 3        19.300
G25  23400958.344 6 122972867.172 6        36.900    23400979.930 4  95823086.799 4        29.700    23400979.996 6  95823011.815 6        38.300    23400983.629 7  91830349.217 7        45.500
G15  25314684.289 5 133029605.379 5        34.800    25314705.176 3 103659547.435 3        20.900    25314704.625 5 103659463.430 5        33.100
G11  21839052.469 7 114765198.725 7        45.300    21839065.719 5  89427598.165 5        34.600    21839065.566 7  89427521.166 7        47.800    21839070.996 8  85701431.911 8        50.500
> 2025  3 11 11  6 19.0000000  0 12       -.000203436000
G05  21086572.531 7 110810893.730 7        47.200    21086589.895 7  86346293.078 7        45.800    21086589.848 7  86346206.084 7        46.800
G19  21768460.391 7 114394306.956 7        42.300    21768480.066 4  89138386.681 4        29.500
G20  20595739.094 7 108231647.232 7        47.300    20595751.895 6  84336442.445 6        38.800
G17  24186145.023 5 127099024.635 5        35.800    24186164.629 4  99038320.472 4        27.500    24186163.930 6  99038257.463 6        37.000
G12  21923503.883 7 115208781.899 7        45.200    21923522.625 6  89773193.527 6        41.500    21923522.492 7  89773146.525 7        44.300
G06  22794017.328 6 119783547.105 6        40.000    22794034.773 5  93337979.184 5        35.800    22794035.293 7  93337887.177 7        42.500    22794037.578 7  89448840.579 7        47.200
G09  24554386.484 5 129034189.527 5        32.500    24554401.586 3 100546535.431 3        22.900    24554401.672 5 100546420.415 5        35.200    24554404.039 6  96357048.950 6        39.600
G22  25228985.930 4 132579230.571 4        29.900
G13  23138382.672 6 121593197.162 6        38.900    23138402.793 3  94747923.028 3        19.600
G25  23400717.688 6 122971603.883 6        37.100    23400739.594 4  95822102.418 4        28.300    23400739.527 6  95822027.428 6        38.100    23400743.242 7  91829405.841 7        45.400
G15  25313930.203 5 133025645.104 5        34.200    25313951.563 3 103656461.497 3        20.400    25313950.582 5 103656377.498 5        32.100
G11  21839018.555 7 114765020.735 7        45.800    21839031.918 5  89427459.473 5        34.100    21839031.711 7  89427382.469 7        47.100    21839037.188 8  85701298.993 8        50.500
> 2025  3 11 11  6 20.0000000  0 12       -.000203674000
G05  21086264.570 7 110809276.207 7        47.100    21086282.020 7  86345032.676 7        45.100    21086282.176 7  86344945.677 7        46.400
G19  21768830.227 7 114396250.340 7        42.600    21768849.887 4  89139901.005 4        29.300
G20  20595848.438 7 108232221.210 7        47.500    20595861.207 6  84336889.704 6        38.400
G17  24186596.555 6 127101398.786 6        36.300    24186616.402 4  99040170.485 4        25.400    24186616.102 6  99040107.485 6        36.400
G12  21923570.172 7 115209131.422 7        45.200    21923589.113 6  89773465.878 6        40.300    21923588.852 7  89773418.870 7        43.800
G06  22794139.438 6 119784187.892 6        40.200    22794156.848 5  93338478.488 5        35.300    22794157.324 6  93338386.486 6        41.600    22794159.469 7  89449319.082 7        47.000
G09  24554764.586 5 129036175.521 5        32.600    24554779.438 3 100548082.952 3        22.500    24554779.344 5 100547967.965 5        34.600    24554781.840 6  96358532.020 6        39.400
G22  25229509.508 4 132581981.73114        29.600
G13  23137691.805 6 121589565.380 6        39.200    23137711.852 3  94745093.077 3        19.900
G25  23400478.070 6 122970341.142 6        37.300    23400499.215 4  95821118.461 4        29.200    23400499.512 6  95821043.464 6        37.300    23400502.984 7  91828462.885 7        45.400
G15  25313176.773 5 133021684.666 5        33.400    25313197.891 3 103653375.461 3        18.600    25313196.676 5 103653291.458 5        31.900
G11  21838984.773 7 114764842.760 7        45.600    21838998.168 5  89427320.788 5        33.800    21838997.738 7  89427243.789 7        46.700    21839003.254 8  85701166.089 8        50.500
> 2025  3 11 11  6 21.0000000  0 12       -.000203915000
G05  21085957.320 7 110807659.128 7        47.300    21085974.238 7  86343772.618 7        45.500    21085974.461 7  86343685.618 7        46.700
G19  21769200.336 7 114398194.128 7        42.500    21769219.840 5  89141415.642 5        30.800
G20  20595957.414 7 108232795.467 7        47.200    20595970.449 6  84337337.183 6        38.200
G17  24187048.156 6 127103773.185 6        36.400    24187068.195 4  99042020.683 4        25.900    24187067.957 6  99041957.683 6        36.800
G12  21923636.836 7 115209481.471 7        45.500    21923655.629 6  89773738.636 6        40.600    21923655.746 7  89773691.637 7        43.600
G06  22794261.453 6 119784828.636 6        40.200    22794278.715 5  93338977.771 5        35.400    22794279.039 7  93338885.764 7        42.100    22794281.406 7  89449797.556 7        47.000
G09  24555143.109 5 129038161.909 5        32.600    24555157.340 3 100549630.798 3        22.500    24555157.137 5 100549515.802 5        35.000    24555159.930 6  96360015.367 6        39.400
G22  25230032.594 4 132584732.630 4        29.900
G13  23137001.305 6 121585933.566 6        39.200    23137020.766 3  94742263.066 3        20.900
G25  23400237.328 6 122969078.924 6        37.100    23400259.055 4  95820134.906 4        29.200    23400258.785 6  95820059.913 6        37.600    23400262.824 7  91827520.309 7        45.200
G15  25312422.469 5 133017724.058 5        32.900    25312444.090 3 103650289.280 3        19.600    25312442.992 5 103650205.267 5        31.700
G11  21838950.945 7 114764664.770 7        45.300    21838964.348 5  89427182.092 5        33.600    21838963.793 7  89427105.090 7        47.000    21838969.438 8  85701033.172 8        50.700
> 2025  3 11 11  6 22.0000000  0 12       -.000204155000
G05  21085649.555 7 110806042.562 7        47.000    21085666.703 7  86342512.959 7        46.000    21085666.953 7  86342425.964 7        47.200
G19  21769570.523 7 114400138.390 7        42.800    21769589.719 5  89142930.643 5        30.400
G20  20596066.859 7 108233370.084 7        46.800    20596079.844 6  84337784.935 6        39.200
G17  24187500.531 6 127106147.893 6        36.800    24187519.961 4  99043871.120 4        27.400    24187519.813 6  99043808.117 6        37.200
G12  21923703.563 7 115209832.134 7        45.500    21923722.496 6  89774011.876 6        41.700    21923722.430 7  89773964.878 7        44.000
G06  22794382.820 6 119785469.409 6        39.900    22794400.660 6  93339477.073 6        36.100    22794400.855 7  93339385.068 7        42.200    22794403.391 7  89450276.055 7        47.200
G09  24555521.711 5 129040148.752 5        32.200    24555535.414 3 100551178.995 3        23.600    24555535.664 5 100551064.005 5        35.800    24555538.129 6  96361499.059 6        39.400
G22  25230557.484 4                        29.900
G13  23136309.555 6 121582301.783 6        39.200    23136329.758 3  94739433.111 3        19.300
G25  23399997.734 6 122967817.293 6        37.100    23400019.016 5  95819151.810 5        30.800    23400018.883 6  95819076.813 6        38.700    23400022.809 7  91826578.181 7        45.600
G15  25311667.961 5 133013763.321 5        32.500    25311690.340 3 103647202.962 3        18.600    25311689.098 5 103647119.009 5        32.400
G11  21838917.063 7 114764486.836 7        45.200    21838930.531 5  89427043.436 5        34.200    21838929.934 7  89426966.438 7        47.500    21838935.523 8  85700900.296 8        50.900
> 2025  3 11 11  6 23.0000000  0 12       -.000204395000
G05  21085341.813 7 110804426.489 7        47.000    21085359.199 7  86341253.686 7        46.300    21085359.031 7  86341166.690 7        47.300
G19  21769940.742 7 114402083.098 7        42.800    21769959.875 5  89144445.997 5        31.100
G20  20596175.891 7 108233945.018 7        47.000    20596189.332 6  84338232.935 6        39.700
G17  24187952.133 5 127108522.854 5        35.800    24187971.980 4  99045721.771 4        27.900    24187972.324 6  99045658.772 6        37.500
G12  21923770.664 7 115210183.366 7        45.500    21923789.316 7  89774285.558 7        42.000    21923789.395 7  89774238.560 7        44.300
G06  22794504.758 6 119786110.179 6        40.100    22794522.781 5  93339976.374 5        35.800    22794522.648 7  93339884.372 7        42.400    22794525.379 7  89450754.550 7        47.000
G09  24555898.758 5 129042136.021 5        32.000    24555913.629 3 100552727.515 3        22.600    24555914.355 5 100552612.528 5        35.900    24555916.117 6  96362983.058 6        38.900
G22  25231080.922 4                        29.100
G13  23135618.375 6 121578670.003 6        38.800    23135638.758 3  94736603.153 3        19.900
G25  23399756.898 6 122966556.226 6        36.800    23399779.215 4  95818169.161 4        29.100    23399779.078 6  95818094.155 6        38.800    23399782.742 7  91825636.464 7        45.200
G15  25310913.547 5 133009802.438 5        32.600    25310936.555 3 103644116.609 3        19.300    25310935.004 5 103644032.622 5        33.000
G11  21838883.273 7 114764308.917 7        45.200    21838896.668 5  89426904.801 5        33.900    21838896.383 7  89426827.801 7        47.600    21838901.711 8  85700767.431 8        50.800
> 2025  3 11 11  6 24.0000000  0 12       -.000204636000
G05  21085034.320 7 110802810.919 7        47.000    21085051.840 7  86339994.808 7        45.500    21085051.727 7  86339907.809 7        46.400
G19  21770310.977 7 114404028.265 7        42.400    21770330.000 4  89145961.712 4        29.700
G20  20596285.781 7 108234520.300 7        47.000    20596298.727 6  84338681.213 6        39.000
G17  24188404.125 6 127110898.121 6        36.100    24188424.055 4  99047572.647 4        27.600    24188424.191 6  99047509.644 6        37.000
G12  21923837.250 7 115210535.181 7        45.700    21923856.273 6  89774559.698 6        41.400    21923856.141 7  89774512.699 7        44.100
G06  22794626.727 6 119786750.952 6        40.000    22794644.625 5  93340475.675 5        35.400    22794644.504 6  93340383.673 6        41.700    22794647.273 7  89451233.051 7        46.700
G09  24556277.852 5 129044123.721 5        32.300    24556291.918 3 100554276.370 3        22.800    24556292.098 5 100554161.401 5        35.300    24556294.383 6  96364467.392 6        38.700
G22  25231602.914 4                        29.400
G13  23134927.297 6 121575038.232 6        38.400    23134947.539 3  94733773.176 3        19.900
G25  23399517.141 6 122965295.728 6        36.800    23399539.316 4  95817186.947 4        29.100    23399538.992 6  95817111.953 6        39.000    23399542.922 7  91824695.183 7        45.000
G15  25310159.891 5 133005841.429 5        32.800    25310182.832 3 103641030.130 3        19.900    25310181.426 5 103640946.126 5        32.200
G11  21838849.422 7 114764131.038 7        44.800    21838862.750 5  89426766.194 5        33.700    21838862.402 7  89426689.193 7        47.300    21838867.902 8  85700634.597 8        51.100
> 2025  3 11 11  6 25.0000000  0 12       -.000204876000
G05  21084726.828 7 110801195.795 7        47.000    21084744.316 7  86338736.274 7        45.700    21084744.188 7  86338649.276 7        46.500
G19  21770680.734 7 114405973.828 7        42.400    21770700.059 5  89147477.729 5        30.000
G20  20596395.055 7 108235095.857 7        46.700    20596408.191 6  84339129.695 6        39.000
G17  24188855.953 5 127113273.620 5        35.600    24188876.074 4  99049423.703 4        27.000    24188875.703 6  99049360.696 6        36.900
G12  21923904.625 7 115210887.528 7        46.100    21923923.309 6  89774834.248 6        41.300    21923923.422 7  89774787.248 7        44.200
G06  22794748.320 6 119787391.700 6        40.100    22794766.500 5  93340974.955 5        35.200    22794766.453 6  93340882.955 6        41.800    22794769.289 7  89451711.525 7        47.000
G09  24556655.766 5 129046111.812 5        32.800    24556670.273 3 100555825.553 3        22.500    24556670.535 5 100555710.559 5        34.800    24556672.520 6  96365952.017 6        38.800
G22  25232126.570 4 132595734.88114        29.400
G13  23134235.172 6 121571406.416 6        38.300    23134256.398 3  94730943.208 3        20.100
G25  23399277.273 6 122964035.751 6        37.000    23399299.539 4  95816205.145 4        29.100    23399300.109 6  95816130.145 6        39.100    23399303.098 7  91823754.283 7        44.900
G15  25309406.711 5 133001880.231 5        33.600    25309429.020 3 103637943.513 3        19.600    25309427.844 5 103637859.491 5        32.600
G11  21838815.555 7 114763953.131 7        45.200    21838828.770 5  89426627.559 5        33.800    21838828.422 7  89426550.566 7        47.600    21838834.004 8  85700501.743 8        51.200
> 2025  3 11 11  6 26.0000000  0 12       -.000205114000
G05  21084419.711 7 110799581.187 7        47.100    21084437.055 7  86337478.144 7        45.900    21084436.980 7  86337391.143 7        47.000
G19  21771051.086 7 114407919.873 7        42.100    21771070.469 4  89148994.127 4        29.900
G20  20596504.664 7 108235671.772 7        46.800    20596517.816 6  84339578.459 6        39.200
G17  24189307.352 6 127115649.419 6        36.200    24189327.980 4  99051274.993 4        25.800    24189327.672 6  99051212.007 6        36.900
G12  21923971.656 7 115211240.474 7        46.000    21923990.520 6  89775109.269 6        41.400    21923990.652 7  89775062.270 7        44.100
G06  22794870.789 6 119788032.485 6        40.000    22794888.406 5  93341474.264 5        35.400    22794888.395 7  93341382.263 7        42.100    22794891.160 7  89452190.028 7        46.800
G09  24557033.578 5 129048100.360 5        32.400    24557048.777 3 100557375.079 3        22.300    24557048.254 5 100557260.081 5        35.100    24557050.809 6  96367436.988 6        38.900
G22  25232649.469 4 132598485.011 4        29.400
G13  23133543.891 6 121567774.640 6        38.600    23133565.297 3  94728113.256 3        20.400
G25  23399037.609 6 122962776.374 6        36.800    23399059.906 5  95815223.810 5        30.000    23399060.449 6  95815148.812 6        38.800    23399063.531 7  91822813.832 7        45.100
G15  25308652.703 5 132997918.927 5        33.400    25308675.277 3 103634856.779 3        20.100    25308674.004 5 103634772.775 5        33.400
G11  21838781.719 7 114763775.287 7        45.100    21838794.883 5  89426488.974 5        34.200    21838794.875 7  89426411.980 7        47.800    21838800.145 8  85700368.933 8        50.900
> 2025  3 11 11  6 27.0000000  0 12       -.000205355000
G05  21084112.523 7 110797967.098 7        47.000    21084129.910 7  86336220.417 7        46.000    21084129.848 7  86336133.416 7        46.800
G19  21771421.523 7 114409866.400 7        42.400    21771440.824 4  89150510.893 4        29.900
G20  20596614.844 7 108236248.048 7        47.100    20596627.488 6  84340027.505 6        39.800
G17  24189760.039 6 127118025.542 6        36.000    24189780.207 4  99053126.557 4        26.700    24189779.313 6  99053063.544 6        37.000
G12  21924039.094 7 115211594.030 7        45.800    21924057.820 6  89775384.763 6        41.800    21924057.684 7  89775337.759 7        44.400
G06  22794992.242 6 119788673.300 6        39.800    22795010.324 5  93341973.594 5        35.000    22795010.645 7  93341881.592 7        42.800    22795013.125 7  89452668.552 7        46.800
G09  24557411.891 5 129050089.373 5        31.600    24557427.387 3 100558924.967 3        23.000    24557426.426 5 100558809.967 5        35.400    24557429.223 6  96368922.288 6        38.700
G22  25233174.414 4 132601235.019 4        28.300
G13  23132853.219 6 121564142.900 6        38.700    23132874.395 3  94725283.352 3        19.900
G25  23398798.492 6 122961517.580 6        36.900    23398820.332 5  95814242.926 5        30.300    23398820.672 6  95814167.931 6        38.900    23398823.953 7  91821873.821 7        45.100
G15  25307899.102 5 132993957.508 5        34.600    25307921.492 3 103631769.975 3        21.100    25307920.379 5 103631685.959 5        33.600
G11  21838748.070 7 114763597.492 7        45.500    21838761.148 5  89426350.431 5        34.400    21838760.789 8  89426273.437 8        48.100    21838766.344 8  85700236.164 8        50.800
> 2025  3 11 11  6 28.0000000  0 12       -.000205595000
G05  21083805.922 7 110796353.510 7        47.100    21083822.898 7  86334963.079 7        46.300    21083822.805 7  86334876.078 7        46.900
G19  21771792.063 7 114411813.392 7        42.100    21771811.234 5  89152028.023 5        31.100
G20  20596724.484 7 108236824.658 7        47.000    20596737.199 6  84340476.814 6        40.200
G17  24190212.445 5 127120401.958 5        35.400    24190232.473 4  99054978.326 4        27.800    24190231.676 6  99054915.325 6        36.400
G12  21924106.609 7 115211948.172 7        45.600    21924125.270 7  89775660.712 7        42.300    21924125.047 7  89775613.716 7        44.300
G06  22795114.984 6 119789314.132 6        40.200    22795132.320 6  93342472.941 6        36.300    22795132.379 7  93342380.935 7        43.200    22795135.012 7  89453147.083 7        46.600
G09  24557789.609 5 129052078.810 5        32.000    24557805.918 3 100560475.171 3        22.200    24557805.066 5 100560360.187 5        35.300    24557807.766 6  96370407.922 6        38.600
G22  25233697.297 4 132603984.880 4        29.400
G13  23132161.969 6 121560511.189 6        38.700    23132183.379 3  94722453.468 3        21.500
G25  23398558.875 6 122960259.374 6        37.300    23398580.844 4  95813262.507 4        29.200    23398581.195 6  95813187.503 6        39.200    23398584.551 7  91820934.245 7        45.300
G15  25307145.891 5 132989995.972 5        34.800    25307167.609 3 103628683.055 3        21.500    25307167.121 5 103628599.050 5        33.900
G11  21838713.930 7 114763419.742 7        45.400    21838727.391 5  89426211.928 5        34.200    21838726.992 8  89426134.927 8        48.000    21838732.516 8  85700103.426 8        50.900
> 2025  3 11 11  6 29.0000000  0 12       -.000205835000
G05  21083498.563 7 110794740.395 7        47.300    21083515.832 7  86333706.113 7        46.400    21083515.957 7  86333619.114 7        47.200
G19  21772162.367 7 114413760.833 7        42.100    21772181.809 5  89153545.501 5        30.800
G20  20596834.258 7 108237401.598 7        47.000    20596846.883 6  84340926.378 6        40.200
G17  24190664.969 5 127122778.652 5        35.400    24190684.656 4  99056830.314 4        27.300    24190684.395 6  99056767.325 6        37.100
G12  21924174.047 7 115212302.900 7        45.300    21924192.758 7  89775937.118 7        42.000    21924192.641 7  89775890.118 7        44.700
G06  22795236.977 6 119789954.959 6        40.100    22795254.270 6  93342972.277 6        36.700    22795254.227 7  93342880.279 7        43.000    22795257.039 7  89453625.625 7        46.700
G09  24558167.625 5 129054068.699 5        31.800    24558184.563 3 100562025.747 3        21.800    24558183.961 5 100561910.743 5        35.500    24558186.617 6  96371893.871 6        38.800
G22  25234221.008 4 132606734.593 4        29.600
G13  23131470.625 6 121556879.484 6        38.400    23131492.273 3  94719623.563 3        20.900
G25  23398319.969 6 122959001.735 6        37.000    23398341.617 5  95812282.522 5        30.400    23398341.352 6  95812207.519 6        39.000    23398345.234 7  91819995.094 7        45.300
G15  25306391.953 5 132986034.293 5        35.700    25306413.762 3 103625596.046 3        21.100    25306413.367 5 103625512.040 5        34.500
G11  21838680.219 7 114763242.015 7        45.700    21838693.555 5  89426073.443 5        34.700    21838693.219 8  89425996.437 8        48.000    21838698.715 8  85699970.709 8        50.700
> 2025  3 11 11  6 30.0000000  0 12       -.000206076000
G05  21083191.719 7 110793127.757 7        47.500    21083209.078 7  86332449.516 7        46.800    21083209.129 7  86332362.519 7        47.200
G19  21772533.313 7 114415708.706 7        42.200    21772552.383 5  89155063.321 5        31.000
G20  20596944.234 7 108237978.849 7        47.100    20596956.641 6  84341376.189 6        40.500
G17  24191116.617 5 127125155.621 5        35.800    24191136.895 4  99058682.522 4        26.200    24191136.488 6  99058619.533 6        37.200
G12  21924241.695 7 115212658.185 7        45.300    21924260.250 7  89776213.960 7        42.100    21924260.207 7  89776166.957 7        44.900
G06  22795358.641 6 119790595.778 6        40.000    22795376.324 6  93343471.614 6        36.900    22795376.289 7  93343379.622 7        43.000    22795379.039 7  89454104.160 7        46.600
G09  24558547.102 5 129056058.992 5        32.400    24558563.273 3 100563576.632 3        22.000    24558562.715 5 100563461.614 5        35.800    24558565.242 6  96373380.133 6        38.700
G22  25234742.547 4 132609484.115 4        29.100
G13  23130779.398 6 121553247.775 6        38.100    23130801.098 3  94716793.649 3        20.600
G25  23398080.375 6 122957744.644 6        36.700    23398102.531 5  95811302.966 5        30.200    23398102.762 6  95811227.960 6        39.000    23398106.016 7  91819056.350 7        45.300
G15  25305637.750 5 132982072.453 5        34.800    25305659.770 3 103622508.915 3        22.000    25305659.477 5 103622424.901 5        34.300
G11  21838646.211 7 114763064.307 7        45.500    21838659.703 5  89425934.964 5        34.200    21838659.359 8  89425857.959 8        48.100    21838664.898 8  85699838.002 8        50.900
> 2025  3 11 11  6 31.0000000  0 12       -.000206314000
G05  21082884.883 7 110791515.611 7        47.500    21082902.238 7  86331193.302 7        46.500    21082902.355 7  86331106.307 7        47.000
G19  21772903.938 7 114417657.005 7        42.100    21772923.152 5  89156581.472 5        30.600
G20  20597054.023 7 108238556.401 7        47.300    20597066.695 6  84341826.230 6        39.700
G17  24191569.000 5 127127532.843 5        35.400    24191589.254 4  99060534.931 4        26.500    24191588.762 6  99060471.936 6        37.400
G12  21924309.453 7 115213014.026 7        45.600    21924328.172 6  89776491.232 6        41.900    21924327.988 7  89776444.229 7        45.000
G06  22795480.727 6 119791236.586 6        39.600    22795498.184 6  93343970.949 6        36.600    22795497.980 7  93343878.945 7        42.700    22795500.836 7  89454582.682 7        46.500
G09  24558926.047 5 129058049.683 5        31.900    24558941.922 3 100565127.817 3        22.600    24558941.270 5 100565012.818 5        35.400    24558944.141 6  96374866.704 6        38.800
G22  25235266.438 5 132612233.48115        30.500
G13  23130088.344 6 121549616.052 6        38.100    23130109.855 3  94713963.720 3        20.600
G25  23397841.094 6 122956488.103 6        36.800    23397863.270 4  95810323.835 4        29.400    23397863.574 6  95810248.829 6        39.200    23397866.836 7  91818118.017 7        45.200
G15  25304883.930 5 132978110.439 5        34.800    25304905.766 3 103619421.618 3        21.300    25304905.707 5 103619337.645 5        33.900
G11  21838612.344 7 114762886.601 7        45.900    21838625.801 5  89425796.492 5        34.000    21838625.645 8  89425719.486 8        48.300    21838631.070 8  85699705.297 8        50.900
> 2025  3 11 11  6 32.0000000  0 12       -.000206554000
G05  21082578.367 7 110789903.934 7        47.300    21082595.473 7  86329937.455 7        46.600    21082595.699 7  86329850.457 7        47.100
G19  21773274.914 7 114419605.731 7        42.400    21773293.895 5  89158099.963 5        30.500
G20  20597164.117 7 108239134.263 7        47.000    20597176.578 6  84342276.512 6        39.400
G17  24192021.375 5 127129910.334 5        35.800    24192041.723 4  99062387.546 4        26.400    24192041.543 6  99062324.536 6        37.600
G12  21924377.305 7 115213370.408 7        45.700    21924395.879 7  89776768.929 7        42.000    21924395.676 7  89776721.929 7        44.800
G06  22795602.547 6 119791877.381 6        40.400    22795620.039 6  93344470.266 6        36.200    22795620.207 7  93344378.262 7        42.700    22795622.863 7  89455061.185 7        46.800
G09  24559305.664 5 129060040.777 5        33.000    24559320.758 3 100566679.332 3        22.500    24559319.746 5 100566564.337 5        35.100    24559323.078 6  96376353.571 6        39.000
G22  25235790.281 4                        29.900
G13  23129397.555 6 121545984.324 6        38.300    23129418.629 3  94711133.840 3        20.100
G25  23397601.867 6 122955232.088 6        36.600    23397624.145 5  95809345.109 5        30.400    23397624.609 6  95809270.120 6        39.200    23397627.941 7  91817180.087 7        45.000
G15  25304130.617 5 132974148.278 5        35.300    25304151.926 3 103616334.238 3        22.500    25304152.047 5 103616250.248 5        33.300
G11  21838578.563 7 114762708.899 7        46.000    21838591.895 5  89425658.020 5        34.700    21838591.734 8  89425581.017 8        48.200    21838597.227 8  85699572.595 8        51.100
> 2025  3 11 11  6 33.0000000  0 12       -.000206795000
G05  21082271.664 7 110788292.732 7        47.100    21082288.855 7  86328681.979 7        46.300    21082288.977 7  86328594.981 7        47.100
G19  21773645.938 7 114421554.888 7        42.600    21773664.867 5  89159618.782 5        30.200
G20  20597273.719 7 108239712.431 7        47.000    20597286.594 6  84342727.034 6        39.300
G17  24192473.828 6 127132288.083 6        36.000    24192494.191 4  99064240.355 4        25.600    24192494.391 6  99064177.367 6        37.500
G12  21924445.211 7 115213727.359 7        45.500    21924463.871 6  89777047.066 6        41.800    21924463.582 7  89777000.067 7        44.800
G06  22795724.484 6 119792518.153 6        40.100    22795741.984 6  93344969.561 6        36.500    22795742.164 7  93344877.561 7        42.500    22795744.852 7  89455539.683 7        47.000
G09  24559684.117 5 129062032.288 5        33.000    24559699.723 3 100568231.171 3        23.500    24559699.027 5 100568116.158 5        34.900    24559702.117 6  96377840.746 6        38.800
G22  25236311.156 5                        30.100
G13  23128706.281 6 121542352.579 6        38.300    23128727.512 3  94708303.909 3        20.100
G25  23397362.898 6 122953976.629 6        36.600    23397385.160 4  95808366.832 4        29.600    23397385.648 6  95808291.831 6        38.800    23397389.043 7  91816242.562 7        44.900
G15  25303376.672 5 132970185.963 5        35.100    25303398.023 3 103613246.743 3        22.300    25303398.109 5 103613162.753 5        32.800
G11  21838544.883 7 114762531.204 7        45.900    21838558.078 5  89425519.552 5        34.400    21838557.895 7  89425442.552 7        47.800    21838563.465 8  85699439.900 8        50.900
> 2025  3 11 11  6 34.0000000  0 12       -.000207035000
G05  21081965.172 7 110786681.970 7        47.200    21081982.387 7  86327426.845 7        46.500    21081982.488 7  86327339.845 7        47.200
G19  21774016.633 7 114423504.458 7        42.000    21774035.973 5  89161137.920 5        30.400
G20  20597384.234 7 108240290.887 7        47.100    20597396.793 6  84343177.781 6        39.600
G17  24192927.352 6 127134666.069 6        36.000    24192946.719 4  99066093.356 4        25.500    24192946.363 6  99066030.360 6        37.300
G12  21924513.305 7 115214084.844 7        45.700    21924531.840 7  89777325.620 7        42.200    21924531.762 7  89777278.623 7        45.000
G06  22795846.258 6 119793158.882 6        40.100    22795863.828 6  93345468.828 6        36.200    22795864.258 7  93345376.831 7        42.700    22795866.773 7  89456018.150 7        47.100
G09  24560063.578 5 129064024.167 5        32.600    24560078.852 3 100569783.287 3        22.800    24560077.832 5 100569668.301 5        35.100    24560081.227 6  96379328.203 6        39.300
G22  25236835.477 5                        30.800
G13  23128014.578 6 121538720.830 6        38.400    23128036.477 3  94705473.979 3        19.000
G25  23397124.344 6 122952721.712 6        36.700    23397146.422 4  95807388.971 4        29.400    23397147.180 6  95807313.958 6        38.700    23397150.164 7  91815305.431 7        45.100
G15  25302622.477 5 132966223.447 5        35.500    25302643.961 3 103610159.088 3        21.700    25302643.047 5 103610075.087 5        32.400
G11  21838510.797 7 114762353.498 7        45.700    21838524.305 5  89425381.079 5        34.100    21838524.227 7  89425304.075 7        47.200    21838529.629 8  85699307.194 8        50.700
> 2025  3 11 11  6 35.0000000  0 12       -.000207275000
G05  21081658.961 7 110785071.658 7        47.000    21081675.941 7  86326172.063 7        46.600    21081675.820 7  86326085.065 7        47.600
G19  21774387.984 7 114425454.438 7        42.300    21774407.148 4  89162657.383 4        29.900
G20  20597494.328 7 108240869.626 7        47.000    20597506.891 6  84343628.750 6        39.500
G17  24193379.430 5 127137044.293 5        35.500    24193399.293 4  99067946.542 4        26.900    24193398.988 6  99067883.538 6        37.900
G12  21924581.383 7 115214442.863 7        45.500    21924600.063 6  89777604.595 6        41.800    21924599.930 7  89777557.593 7        45.100
G06  22795968.430 6 119793799.584 6        39.900    22795985.879 6  93345968.076 6        36.400    22795985.902 7  93345876.075 7        42.600    22795988.684 7  89456496.594 7        47.200
G09  24560442.406 5 129066016.454 5        32.800    24560457.984 3 100571335.740 3        22.500    24560457.070 5 100571220.739 5        34.700    24560460.453 6  96380815.963 6        39.200
G22  25237359.500 5                        30.500
G13  23127324.836 6 121535089.052 6        38.100    23127345.355 3  94702644.014 3        19.900
G25  23396885.070 6 122951467.293 6        36.400    23396907.813 4  95806411.499 4        29.600    23396908.160 6  95806336.488 6        39.000    23396911.465 7  91814368.689 7        45.300
G15  25301867.641 6 132962260.755 6        36.200    25301889.801 3 103607071.272 3        21.800    25301888.961 5 103606987.302 5        32.500
G11  21838477.266 7 114762175.774 7        46.000    21838490.516 5  89425242.592 5        34.900    21838490.465 7  89425165.590 7        47.300    21838495.801 8  85699174.479 8        50.800
> 2025  3 11 11  6 36.0000000  0 12       -.000207514000
G05  21081352.352 7 110783461.787 7        47.400    21081369.602 7  86324917.623 7        46.700    21081369.461 7  86324830.620 7        47.500
G19  21774758.719 7 114427404.819 7        42.600    21774778.477 5  89164177.162 5        30.000
G20  20597604.445 7 108241448.648 7        47.000    20597617.043 6  84344079.933 6        39.600
G17  24193831.172 6 127139422.718 6        36.000    24193851.828 4  99069799.886 4        27.000    24193851.348 6  99069736.891 6        37.900
G12  21924649.570 7 115214801.414 7        45.600    21924668.207 7  89777883.980 7        42.300    21924668.453 7  89777836.977 7        45.000
G06  22796089.547 6 119794440.254 6        40.100    22796107.715 6  93346467.296 6        36.400    22796107.457 7  93346375.287 7        42.600    22796110.621 7  89456975.002 7        47.000
G09  24560821.258 5 129068009.095 5        32.400    24560837.238 3 100572888.445 3        22.600    24560836.426 5 100572773.470 5        34.700    24560839.844 6  96382303.984 6        38.900
G22  25237882.375 5                        30.800
G13  23126633.680 6 121531457.235 6        38.600    23126654.250 3  94699814.043 3        20.100
G25  23396647.406 6 122950213.394 6        36.600    23396669.199 5  95805434.428 5        30.400    23396669.336 6  95805359.424 6        39.200    23396672.805 7  91813432.332 7        44.900
G15  25301114.664 6 132958297.889 6        36.600    25301135.586 3 103603983.321 3        22.300    25301134.801 5 103603899.325 5        32.100
G11  21838443.414 7 114761998.032 7        46.100    21838456.816 5  89425104.089 5        34.800    21838456.629 7  89425027.090 7        47.300    21838461.992 8  85699041.746 8        50.900
> 2025  3 11 11  6 37.0000000  0 12       -.000207754000
G05  21081046.156 7 110781852.403 7        47.400    21081063.246 7  86323663.562 7        46.500    21081063.090 7  86323576.561 7        47.300
G19  21775130.461 7 114429355.637 7        42.600    21775149.770 5  89165697.275 5        31.200
G20  20597714.844 7 108242027.980 7        47.100    20597727.281 6  84344531.362 6        39.500
G17  24194283.531 5 127141801.460 5        35.900    24194304.441 4  99071653.474 4        26.800    24194303.859 6  99071590.463 6        38.100
G12  21924718.031 7 115215160.528 7        45.100    21924736.586 7  89778163.804 7        42.500    21924736.680 7  89778116.806 7        45.300
G06  22796212.047 6 119795080.906 6        40.200    22796229.680 6  93346966.497 6        36.400    22796229.449 7  93346874.501 7        42.600    22796232.559 7  89457453.412 7        47.200
G09  24561200.695 5 129070002.179 5        32.500    24561216.590 3 100574441.511 3        22.500    24561215.629 5 100574326.515 5        35.000    24561219.113 6  96383792.337 6        39.000
G22  25238405.016 5 132628725.672 5        30.700
G13  23125942.641 6 121527825.453 6        38.900    23125963.277 3  94696984.086 3        20.600
G25  23396408.664 6 122948960.059 6        36.500    23396430.699 5  95804457.802 5        30.200    23396430.828 6  95804382.797 6        39.000    23396434.398 7  91812496.397 7        44.800
G15  25300360.180 6 132954334.870 6        36.900    25300381.320 3 103600895.278 3        22.300    25300380.637 5 103600811.272 5        32.200
G11  21838409.398 7 114761820.310 7        46.100    21838423.035 5  89424965.606 5        34.400    21838423.063 7  89424888.605 7        47.400    21838428.203 8  85698909.032 8        51.000
> 2025  3 11 11  6 38.0000000  0 12       -.000207994000
G05  21080739.922 7 110780243.481 7        47.500    21080757.180 7  86322409.859 7        46.300    21080757.184 7  86322322.861 7        47.200
G19  21775502.258 7 114431306.879 7        42.600    21775521.063 5  89167217.717 5        30.300
G20  20597824.906 7 108242607.614 7        47.000    20597837.719 6  84344983.026 6        39.500
G17  24194735.688 6 127144180.408 6        36.400    24194757.109 4  99073507.220 4        26.800    24194757.113 6  99073444.221 6        37.600
G12  21924786.461 7 115215520.192 7        45.300    21924804.949 7  89778444.057 7        42.100    21924805.184 7  89778397.053 7        44.800
G06  22796334.305 6 119795721.548 6        39.900    22796351.578 6  93347465.696 6        36.500    22796351.703 7  93347373.694 7        42.700    22796354.438 7  89457931.803 7        47.500
G09  24561579.656 5 129071995.664 5        32.500    24561595.887 3 100575994.884 3        23.000    24561595.484 5 100575879.889 5        34.800    24561598.512 6  96385280.987 6        39.200
G22  25238928.148 5 132631473.684 5        30.700
G13  23125250.945 6 121524193.644 6        38.600    23125272.027 3  94694154.107 3        20.600
G25  23396170.023 6 122947707.256 6        36.500    23396192.242 5  95803481.586 5        30.400    23396192.234 6  95803406.582 6        38.700    23396195.898 7  91811560.858 7        44.700
G15  25299605.898 6 132950371.678 6        37.000    25299626.996 3 103597807.091 3        22.500    25299626.039 5 103597723.073 5        31.900
G11  21838375.500 7 114761642.583 7        46.300    21838389.234 5  89424827.115 5        34.200    21838389.105 7  89424750.116 7        47.600    21838394.383 8  85698776.313 8        50.900
> 2025  3 11 11  6 39.0000000  0 12       -.000208235000
G05  21080433.938 7 110778635.011 7        47.500    21080451.074 7  86321156.512 7        46.400    21080451.113 7  86321069.513 7        47.300
G19  21775873.070 7 114433258.532 7        42.600    21775892.457 5  89168738.485 5        30.300
G20  20597935.188 7 108243187.540 7        47.000    20597947.988 6  84345434.918 6        39.200
G17  24195189.766 6 127146559.629 6        36.600    24195209.844 4  99075361.189 4        27.700    24195209.891 6  99075298.178 6        37.600
G12  21924854.695 7 115215880.399 7        46.000    21924873.621 7  89778724.734 7        42.100    21924873.660 7  89778677.732 7        44.700
G06  22796455.578 6 119796362.153 6        40.200    22796473.469 6  93347964.864 6        36.500    22796473.762 7  93347872.863 7        42.600    22796476.367 7  89458410.175 7        47.400
G09  24561958.625 5 129073989.532 5        31.900    24561975.387 3 100577548.551 3        22.500    24561974.699 5 100577433.552 5        35.400    24561977.715 6  96386769.919 6        39.300
G22  25239450.906 5                        31.200
G13  23124560.016 6 121520561.802 6        38.300    23124580.941 3  94691324.083 3        20.400
G25  23395932.492 6 122946454.988 6        36.500    23395953.918 5  95802505.789 5        30.100    23395954.418 6  95802430.785 6        39.100    23395957.664 7  91810625.711 7        44.900
G15  25298852.344 6 132946408.314 6        37.000    25298872.785 3 103594718.765 3        22.300    25298871.637 5 103594634.745 5        32.600
G11  21838342.141 7 114761464.845 7        45.700    21838355.395 5  89424688.614 5        34.200    21838355.086 7  89424611.619 7        47.300    21838360.547 8  85698643.587 8        51.100
> 2025  3 11 11  6 40.0000000  0 12       -.000208475000
G05  21080127.969 7 110777027.028 7        47.200    21080145.086 7  86319903.542 7        46.400    21080145.227 7  86319816.541 7        47.200
G19  21776244.633 7 114435210.633 7        42.800    21776263.859 5  89170259.596 5        30.000
G20  20598045.430 7 108243767.782 7        47.100    20598058.254 6  84345887.053 6        39.500
G17  24195642.461 6 127148939.121 6        36.000    24195662.855 4  99077215.356 4        27.800    24195662.254 6  99077152.352 6        37.600
G12  21924923.641 7 115216241.168 7        45.600    21924942.328 6  89779005.847 6        41.900    21924942.512 7  89778958.852 7        44.500
G06  22796577.813 6 119797002.752 6        40.100    22796595.496 6  93348464.027 6        36.600    22796595.605 7  93348372.028 7        42.600    22796598.289 7  89458888.541 7        47.200
G09  24562337.602 5 129075983.843 5        31.600    24562354.855 3 100579102.555 3        22.500    24562354.055 5 100578987.561 5        35.100    24562357.262 6  96388259.179 6        39.400
G22  25239972.984 5 132636969.191 5        30.500
G13  23123868.656 6 121516929.964 6        38.700    23123889.652 3  94688494.089 3        20.400
G25  23395693.203 6 122945203.289 6        36.400    23395715.617 4  95801530.423 4        29.300    23395715.855 6  95801455.417 6        39.100    23395719.500 7  91809690.992 7        44.700
G15  25298098.070 6 132942444.803 6        36.300    25298118.391 3 103591630.314 3        21.700    25298117.742 5 103591546.294 5        31.600
G11  21838308.031 7 114761287.130 7        45.300    21838321.551 5  89424550.136 5        34.300    21838321.324 7  89424473.138 7        47.500    21838326.699 8  85698510.877 8        50.500
> 2025  3 11 11  6 41.0000000  0 12       -.000208715000
G05  21079821.914 7 110775419.541 7        47.400    21079839.160 7  86318650.959 7        46.500    21079839.309 7  86318563.962 7        46.700
G19  21776615.711 7 114437163.193 7        43.000    21776635.371 4  89171781.065 4        29.400
G20  20598156.172 7 108244348.369 7        47.300    20598168.824 6  84346339.459 6        39.700
G17  24196096.758 6 127151318.910 6        36.100    24196115.664 4  99079069.756 4        27.600    24196115.320 6  99079006.750 6        37.800
G12  21924992.586 7 115216602.531 7        45.700    21925010.973 7  89779287.427 7        42.200    21925011.285 7  89779240.428 7        44.700
G06  22796699.484 6 119797643.377 6        39.900    22796717.352 6  93348963.213 6        36.200    22796717.473 7  93348871.203 7        42.400    22796720.223 7  89459366.921 7        47.300
G09  24562717.539 5 129077978.575 5        31.300    24562734.352 3 100580656.896 3        22.800    24562733.836 5 100580541.904 5        34.700    24562736.941 6  96389748.760 6        39.700
G22  25240496.000 5 132639716.713 5        30.800
G13  23123178.375 6 121513298.147 6        38.700    23123198.465 3  94685664.101 3        20.600
G25  23395455.102 6 122943952.149 6        36.200    23395477.645 4  95800555.509 4        28.900    23395477.563 6  95800480.507 6        38.800    23395481.418 7  91808756.702 7        44.700
G15  25297344.422 6 132938481.163 6        37.200    25297364.063 3 103588541.769 3        21.700    25297363.781 5 103588457.764 5        32.500
G11  21838274.805 7 114761109.459 7        45.600    21838287.820 5  89424411.691 5        34.500    21838287.449 7  89424334.692 7        47.700    21838292.961 8  85698378.199 8        50.700
> 2025  3 11 11  6 42.0000000  0 12       -.000208954000
G05  21079516.180 7 110773812.550 7        47.500    21079533.387 7  86317398.763 7        46.300    21079533.418 7  86317311.763 7        46.700
G19  21776987.594 7 114439116.222 7        42.700    21777006.914 5  89173302.904 5        30.300
G20  20598266.531 7 108244929.294 7        46.900    20598279.383 6  84346792.131 6        39.800
G17  24196548.867 5 127153698.997 5        35.400    24196568.422 4  99080924.385 4        27.600    24196568.680 6  99080861.385 6        37.900
G12  21925061.336 7 115216964.486 7        46.300    21925079.883 6  89779569.464 6        41.800    21925080.055 7  89779522.467 7        44.900
G06  22796821.148 6 119798284.005 6        40.200    22796839.176 6  93349462.401 6        36.400    22796839.313 7  93349370.398 7        42.600    22796842.070 7  89459845.314 7        47.000
G09  24563097.398 5 129079973.765 5        31.200    24563114.129 3 100582211.596 3        23.000    24563113.656 5 100582096.606 5        35.200    24563116.637 6  96391238.672 6        39.800
G22  25241020.875 5 132642464.068 5        31.300
G13  23122487.813 6 121509666.361 6        38.700    23122507.324 3  94682834.145 3        21.500
G25  23395217.141 6 122942701.603 6        36.600    23395239.578 4  95799581.054 4        29.100    23395239.738 6  95799506.045 6        39.500    23395243.492 7  91807822.841 7        44.600
G15  25296590.242 6 132934517.404 6        37.300    25296609.750 3 103585453.135 3        23.200    25296609.926 5 103585369.138 5        32.600
G11  21838240.797 7 114760931.822 7        45.800    21838253.996 5  89424273.269 5        34.700    21838253.699 8  89424196.274 8        48.100    21838259.074 8  85698245.547 8        51.100
> 2025  3 11 11  6 43.0000000  0 12       -.000209194000
G05  21079210.398 7 110772206.032 7        47.200    21079227.648 7  86316146.936 7        46.700    21079227.750 7  86316059.938 7        47.000
G19  21777359.242 7 114441069.667 7        42.800    21777378.613 5  89174825.071 5        30.800
G20  20598377.039 7 108245510.522 7        47.000    20598389.965 6  84347245.035 6        39.700
G17  24197002.047 6 127156079.344 6        36.000    24197021.348 4  99082779.220 4        26.800    24197021.641 6  99082716.233 6        37.700
G12  21925130.234 7 115217327.002 7        45.900    21925148.836 7  89779851.940 7        42.200    21925149.027 7  89779804.939 7        44.500
G06  22796943.211 6 119798924.632 6        40.400    22796961.051 6  93349961.590 6        36.100    22796961.164 7  93349869.580 7        43.000    22796964.043 7  89460323.700 7        46.800
G09  24563476.641 5 129081969.373 5        30.100    24563493.895 3 100583766.628 3        22.300    24563493.055 5 100583651.608 5        35.400    24563496.387 6  96392728.886 6        40.000
G22  25241542.789 5 132645211.274 5        30.300
G13  23121795.906 6 121506034.563 6        39.000    23121816.102 3  94680004.183 3        21.100
G25  23394979.695 6 122941451.596 6        36.700    23395001.668 4  95798607.008 4        29.400    23395002.148 6  95798532.010 6        39.700    23395005.598 7  91806889.392 7        44.700
G15  25295835.109 6 132930553.495 6        37.300    25295855.574 3 103582364.378 3        23.600    25295856.023 5 103582280.373 5        33.000
G11  21838207.133 7 114760754.202 7        45.700    21838220.047 5  89424134.869 5        35.000    21838220.125 7  89424057.863 7        47.900    21838225.305 8  85698112.907 8        50.900
> 2025  3 11 11  6 44.0000000  0 12       -.000209435000
G05  21078904.938 7 110770599.989 7        47.400    21078922.047 7  86314895.480 7        46.800    21078922.254 7  86314808.481 7        46.800
G19  21777731.367 7 114443023.538 7        42.200    21777750.398 5  89176347.557 5        30.500
G20  20598488.336 7 108246092.054 7        47.000    20598500.609 6  84347698.179 6        40.100
G17  24197454.688 5 127158459.951 5        35.500    24197474.309 4  99084634.267 4        26.500    24197474.594 6  99084571.266 6        38.000
G12  21925199.172 7 115217690.059 7        45.700    21925217.957 7  89780134.834 7        42.000    21925218.031 7  89780087.837 7        44.600
G06  22797065.195 6 119799565.236 6        40.300    22797082.969 6  93350460.756 6        36.000    22797083.051 7  93350368.753 7        43.000    22797085.957 7  89460802.069 7        46.700
G09  24563855.531 5 129083965.365 5        30.100    24563873.625 3 100585321.938 3        21.300    24563872.848 5 100585206.934 5        35.400    24563876.055 6  96394219.406 6        39.900
G22  25242066.172 5 132647958.275 5        30.100
G13  23121104.500 6 121502402.746 6        39.200    23121125.039 3  94677174.203 3        20.400
G25  23394741.867 6 122940202.130 6        36.200    23394764.098 4  95797633.403 4        29.300    23394764.508 6  95797558.394 6        39.800    23394767.715 7  91805956.342 7        44.800
G15  25295081.297 6 132926589.416 6        37.100    25295101.301 3 103579275.486 3        22.500    25295102.000 5 103579191.491 5        33.300
G11  21838172.992 7 114760576.577 7        45.900    21838186.379 5  89423996.454 5        34.600    21838186.141 7  89423919.455 7        47.900    21838191.555 8  85697980.263 8        50.700
> 2025  3 11 11  6 45.0000000  0 12       -.000209675000
G05  21078599.359 7 110768994.346 7        47.200    21078616.492 7  86313644.334 7        46.700    21078616.625 7  86313557.338 7        46.900
G19  21778103.250 7 114444977.781 7        42.000    21778122.203 5  89177870.343 5        30.000
G20  20598598.844 7 108246673.838 7        47.000    20598611.355 6  84348151.519 6        40.200
G17  24197907.406 5 127160840.750 5        35.400    24197927.418 4  99086489.464 4        27.300    24197927.176 6  99086426.466 6        38.100
G12  21925268.531 7 115218053.621 7        46.000    21925287.137 7  89780418.127 7        42.300    21925287.355 7  89780371.129 7        44.200
G06  22797187.234 6 119800205.769 6        40.000    22797205.016 5  93350959.865 5        35.900    22797204.992 7  93350867.865 7        43.100    22797207.895 7  89461280.383 7        46.700
G09  24564236.422 5 129085961.709 5        31.500    24564253.559 3 100586877.517 3        22.000    24564253.016 5 100586762.525 5        35.600    24564255.707 6  96395710.184 6        39.600
G22  25242588.063 5 132650705.031 5        30.500
G13  23120413.852 6 121498770.863 6        39.000    23120433.973 3  94674344.176 3        20.400
G25  23394503.672 6 122938953.141 6        36.400    23394526.402 4  95796660.162 4        29.800    23394526.680 6  95796585.168 6        39.900    23394530.098 7  91805023.654 7        45.100
G15  25294327.164 6 132922625.121 6        36.400    25294346.965 3 103576186.429 3        22.500    25294347.086 5 103576102.450 5        32.800
G11  21838139.438 7 114760398.899 7        46.100    21838152.586 5  89423858.002 5        34.600    21838152.410 7  89423781.004 7        47.800    21838157.691 8  85697847.583 8        50.300
> 2025  3 11 11  6 46.0000000  0 12       -.000209915000
G05  21078293.820 7 110767389.178 7        47.300    21078310.875 7  86312393.560 7        46.600    21078311.074 7  86312306.562 7        47.000
G19  21778475.164 7 114446932.457 7        42.300    21778494.188 5  89179393.468 5        30.600
G20  20598709.586 7 108247255.923 7        47.100    20598722.070 6  84348605.093 6        40.600
G17  24198359.547 5 127163221.836 5        35.500    24198380.465 4  99088344.877 4        26.300    24198380.133 6  99088281.869 6        37.900
G12  21925337.477 7 115218417.732 7        45.600    21925356.566 7  89780701.844 7        42.400    21925356.438 7  89780654.844 7        44.400
G06  22797309.680 6 119800846.279 6        40.100    22797326.793 6  93351458.967 6        36.800    22797326.914 7  93351366.963 7        43.300    22797329.762 7  89461758.685 7        47.200
G09  24564617.023 5 129087958.440 5        31.600    24564633.527 3 100588433.429 3        22.600    24564633.414 5 100588318.426 5        35.500    24564635.547 6  96397201.260 6        39.700
G22  25243110.688 4 132653451.593 4        29.900
G13  23119722.922 6 121495138.969 6        39.200    23119742.852 3  94671514.126 3        21.500
G25  23394266.758 6 122937704.705 6        36.500    23394288.652 5  95795687.351 5        30.000    23394288.996 6  95795612.352 6        39.600    23394292.551 7  91804091.377 7        44.900
G15  25293572.813 6 132918660.659 6        36.300    25293592.617 3 103573097.254 3        22.900    25293592.461 5 103573013.269 5        32.900
G11  21838105.469 7 114760221.228 7        46.500    21838118.848 5  89423719.558 5        35.000    21838118.750 7  89423642.559 7        47.700    21838123.840 8  85697714.903 8        50.500
> 2025  3 11 11  6 47.0000000  0 12       -.000210155000
G05  21077988.734 7 110765784.517 7        47.100    21078005.594 7  86311143.179 7        46.700    21078005.551 7  86311056.180 7        46.900
G19  21778847.625 7 114448887.589 7        42.500    21778866.348 5  89180916.933 5        30.200
G20  20598820.594 7 108247838.358 7        47.100    20598832.984 6  84349058.942 6        40.500
G17  24198813.109 6 127165603.210 6        36.200    24198833.742 4  99090200.510 4        26.300    24198833.230 6  99090137.510 6        37.900
G12  21925407.148 7 115218782.437 7        45.400    21925425.879 7  89780986.023 7        42.500    21925425.734 7  89780939.028 7        44.700
G06  22797430.883 6 119801486.813 6        40.200    22797448.602 6  93351958.083 6        36.000    22797448.926 7  93351866.079 7        43.300    22797451.652 7  89462237.003 7        47.200
G09  24564998.594 5 129089955.616 5        32.200    24565013.363 3 100589989.644 3        22.200    24565013.270 5 100589874.677 5        35.800    24565015.477 6  96398692.674 6        39.200
G22  25243631.891 4 132656198.056 4        29.600
G13  23119031.242 6 121491507.109 6        39.200    23119051.742 3  94668684.104 3        21.100
G25  23394028.938 6 122936456.846 6        36.700    23394051.168 4  95794714.990 4        29.900    23394051.164 6  95794639.992 6        39.500    23394055.008 7  91803159.533 7        45.000
G15  25292817.516 6 132914696.078 6        36.000    25292838.152 3 103570007.984 3        22.600    25292838.133 5 103569923.997 5        33.100
G11  21838071.445 7 114760043.604 7        46.200    21838085.047 5  89423581.147 5        34.800    21838085.008 8  89423504.150 8        48.000    21838090.051 8  85697582.259 8        50.700
> 2025  3 11 11  6 48.0000000  0 12       -.000210394000
G05  21077683.250 7 110764180.352 7        46.900    21077700.391 7  86309893.185 7        46.600    21077700.465 7  86309806.188 7        46.900
G19  21779219.695 7 114450843.179 7        42.600    21779238.508 5  89182440.765 5        30.300
G20  20598931.414 7 108248421.123 7        47.200    20598943.820 6  84349513.046 6        40.200
G17  24199265.813 5 127167984.862 5        35.700    24199287.000 4  99092056.375 4        27.200    24199286.332 6  99091993.372 6        38.100
G12  21925476.617 7 115219147.725 7        45.200    21925495.430 7  89781270.658 7        42.600    21925495.102 7  89781223.660 7        44.600
G06  22797553.078 6 119802127.359 6        40.200    22797570.633 6  93352457.205 6        36.600    22797570.699 7  93352365.202 7        42.900    22797573.527 7  89462715.325 7        47.200
G09  24565378.992 5 129091953.234 5        32.300    24565393.309 3 100591546.260 3        22.600    24565393.297 6 100591431.271 6        36.000    24565395.469 6  96400184.408 6        39.200
G22  25244154.430 4 132658944.323 4        28.600
G13  23118340.242 6 121487875.252 6        38.900    23118360.559 3  94665854.077 3        21.100
G25  23393792.031 6 122935209.574 6        36.400    23393813.773 4  95793743.091 4        29.800    23393814.270 6  95793668.078 6        39.800    23393817.672 7  91802228.117 7        44.600
G15  25292063.289 6 132910731.358 6        36.100    25292083.637 3 103566918.622 3        22.000    25292083.098 5 103566834.608 5        32.400
G11  21838037.938 7 114759866.005 7        46.200    21838051.242 5  89423442.761 5        34.900    21838050.824 7  89423365.758 7        47.500    21838056.316 8  85697449.635 8        50.500
> 2025  3 11 11  6 49.0000000  0 12       -.000210634000
G05  21077377.852 7 110762576.663 7        47.000    21077395.227 7  86308643.565 7        46.400    21077395.391 7  86308556.564 7        46.800
G19  21779591.617 7 114452799.210 7        42.600    21779610.816 5  89183964.947 5        30.900
G20  20599042.422 7 108249004.211 7        47.200    20599054.891 6  84349967.402 6        39.800
G17  24199719.891 6 127170366.789 6        36.000    24199740.160 4  99093912.436 4        25.500    24199739.754 6  99093849.440 6        38.300
G12  21925546.148 7 115219513.578 7        44.900    21925564.969 7  89781555.734 7        42.300    21925565.215 7  89781508.741 7        44.700
G06  22797675.000 6 119802767.907 6        40.200    22797692.473 6  93352956.329 6        36.200    22797692.750 7  93352864.322 7        42.900    22797695.426 7  89463193.648 7        47.500
G09  24565758.266 5 129093951.254 5        32.500    24565773.527 3 100593103.176 3        22.500    24565773.531 5 100592988.198 5        35.300    24565775.836 6  96401676.459 6        39.400
G22  25244676.781 5 132661690.426 5        30.300
G13  23117648.844 6 121484243.390 6        39.000    23117669.480 3  94663024.060 3        20.400
G25  23393555.242 6 122933962.849 6        36.600    23393576.652 5  95792771.607 5        31.400    23393576.863 6  95792696.603 6        39.500    23393580.379 7  91801297.115 7        44.600
G15  25291308.391 5 132906766.495 5        35.500    25291329.074 3 103563829.116 3        21.800    25291328.738 5 103563745.119 5        32.500
G11  21838004.391 7 114759688.435 7        45.500    21838017.336 5  89423304.394 5        35.000    21838016.965 7  89423227.390 7        47.800    21838022.508 8  85697317.032 8        50.700
> 2025  3 11 11  6 50.0000000  0 12       -.000210875000
G05  21077072.914 7 110760973.466 7        47.000    21077090.031 7  86307394.323 7        46.400    21077090.297 7  86307307.326 7        47.000
G19  21779963.938 7 114454755.675 7        43.000    21779983.148 5  89185489.461 5        30.500
G20  20599153.164 7 108249587.609 7        47.100    20599165.906 6  84350422.000 6        39.700
G17  24200172.891 6 127172748.999 6        36.100    24200193.379 4  99095768.737 4        26.500    24200193.055 6  99095705.733 6        38.100
G12  21925616.203 7 115219879.991 7        45.000    21925634.684 7  89781841.250 7        42.200    21925635.035 7  89781794.250 7        44.700
G06  22797796.781 6 119803408.448 6        40.400    22797814.363 6  93353455.442 6        36.800    22797814.746 7  93353363.444 7        42.700    22797817.375 7  89463671.971 7        47.200
G09  24566138.438 5 129095949.712 5        32.300    24566153.965 3 100594660.424 3        22.500    24566153.777 5 100594545.441 5        35.100    24566156.234 6  96403168.822 6        39.500
G22  25245200.820 4 132664436.350 4        29.400
G13  23116956.961 6 121480611.549 6        38.000    23116978.309 3  94660194.073 3        20.900
G25  23393317.508 6 122932716.688 6        36.500    23393339.348 5  95791800.568 5        30.800    23393339.777 6  95791725.565 6        39.100    23393343.281 7  91800366.530 7        44.600
G15  25290553.672 5 132902801.476 5        35.300    25290574.336 3 103560739.492 3        22.200    25290573.988 5 103560655.501 5        31.700
G11  21837969.750 7 114759510.881 7        45.400    21837983.602 5  89423166.032 5        34.200    21837983.234 7  89423089.036 7        47.900    21837988.746 8  85697184.440 8        51.000
> 2025  3 11 11  6 51.0000000  0 12       -.000211115000
G05  21076768.000 7 110759370.699 7        47.100    21076785.105 7  86306145.418 7        46.500    21076785.129 7  86306058.420 7        47.000
G19  21780336.203 7 114456712.538 7        43.000    21780355.508 5  89187014.284 5        30.700
G20  20599264.102 7 108250171.286 7        47.100    20599276.887 6  84350876.814 6        39.700
G17  24200626.672 6 127175131.422 6        36.100    24200646.676 4  99097625.193 4        27.100    24200646.461 6  99097562.197 6        38.100
G12  21925685.773 7 115220246.932 7        45.100    21925704.566 7  89782127.173 7        42.200    21925704.699 7  89782080.175 7        44.500
G06  22797918.172 6 119804048.937 6        40.200    22797936.313 6  93353954.523 6        36.300    22797936.902 7  93353862.525 7        42.700    22797939.332 7  89464150.254 7        47.100
G09  24566518.258 5 129097948.550 5        32.000    24566534.375 3 100596217.979 3        22.800    24566534.332 5 100596102.974 5        35.400    24566536.574 6  96404661.454 6        39.200
G22  25245723.094 4 132667182.096 4        29.600
G13  23116265.734 6 121476979.661 6        38.400    23116287.164 3  94657363.998 3        20.900
G25  23393080.961 6 122931471.031 6        36.600    23393102.359 5  95790829.913 5        30.100    23393102.492 6  95790754.918 6        39.400    23393106.184 7  91799436.330 7        44.700
G15  25289800.000 5 132898836.271 5        35.700    25289819.703 3 103557649.727 3        21.300    25289819.340 5 103557565.739 5        31.600
G11  21837936.344 7 114759333.294 7        45.500    21837949.813 5  89423027.655 5        34.600    21837949.371 7  89422950.657 7        47.900    21837954.957 8  85697051.830 8        50.700
> 2025  3 11 11  6 52.0000000  0 12       -.000211355000
G05  21076463.070 7 110757768.393 7        47.000    21076480.199 7  86304896.874 7        46.200    21076480.125 7  86304809.875 7        46.600
G19  21780708.883 7 114458669.826 7        42.900    21780727.727 5  89188539.435 5        31.200
G20  20599375.188 7 108250755.252 7        46.900    20599388.023 6  84351331.851 6        40.300
G17  24201080.148 5 127177514.127 5        35.900    24201100.191 4  99099481.874 4        27.100    24201099.793 6  99099418.860 6        37.900
G12  21925755.602 7 115220614.418 7        45.200    21925774.547 7  89782413.518 7        42.400    21925774.453 7  89782366.521 7        44.700
G06  22798041.016 6 119804689.412 6        40.400    22798058.250 6  93354453.588 6        36.600    22798058.750 7  93354361.586 7        42.600    22798061.148 7  89464628.524 7        47.200
G09  24566898.984 5 129099947.787 5        31.600    24566914.762 3 100597775.827 3        23.800    24566914.598 5 100597660.825 5        35.500    24566917.164 6  96406154.392 6        39.400
G22  25246245.633 4 132669927.625 4        29.400
G13  23115574.352 6 121473347.749 6        37.500    23115596.086 3  94654533.947 3        20.600
G25  23392843.984 6 122930225.911 6        36.700    23392865.652 5  95789859.688 5        30.300    23392865.121 6  95789784.696 6        39.000    23392869.234 7  91798506.529 7        44.700
G15  25289045.867 5 132894870.899 5        35.800    25289064.957 3 103554559.835 3        21.300    25289064.426 5 103554475.837 5        31.600
G11  21837902.531 7 114759155.714 7        45.500    21837915.961 5  89422889.281 5        34.700    21837915.539 8  89422812.280 8        48.200    21837921.180 8  85696919.214 8        50.700
> 2025  3 11 11  6 53.0000000  0 12       -.000211596000
G05  21076158.148 7 110756166.541 7        47.000    21076175.281 7  86303648.682 7        46.200    21076175.508 7  86303561.679 7        46.500
G19  21781081.328 7 114460627.515 7        43.100    21781100.156 5  89190064.914 5        31.000
G20  20599486.445 7 108251339.504 7        47.000    20599499.211 6  84351787.114 6        39.800
G17  24201534.750 6 127179897.050 6        36.300    24201553.844 4  99101338.715 4        28.200    24201553.438 6  99101275.705 6        38.100
G12  21925825.469 7 115220982.436 7        45.700    21925844.574 7  89782700.283 7        42.100    21925844.566 7  89782653.282 7        44.500
G06  22798162.766 6 119805329.833 6        40.100    22798179.973 5  93354952.619 5        35.900    22798180.367 7  93354860.617 7        42.300    22798182.980 7  89465106.761 7        47.200
G09  24567278.414 5 129101947.395 5        31.300    24567295.383 3 100599333.955 3        22.200    24567294.945 5 100599218.955 5        35.300    24567297.859 6  96407647.610 6        39.900
G22  25246768.563 4 132672672.959 4        29.100
G13  23114883.258 6 121469715.797 6        38.400    23114905.020 3  94651703.873 3        20.600
G25  23392606.508 6 122928981.339 6        36.300    23392628.836 4  95788889.885 4        29.800    23392628.742 6  95788814.856 6        38.800    23392632.477 7  91797577.113 7        44.700
G15  25288290.742 6 132890905.351 6        36.100    25288310.309 3 103551469.801 3        21.700    25288309.965 5 103551385.800 5        31.000
G11  21837868.805 7 114758978.115 7        45.500    21837882.242 5  89422750.887 5        33.700    21837882.008 8  89422673.887 8        48.000    21837887.430 8  85696786.589 8        50.800
> 2025  3 11 11  6 54.0000000  0 12       -.000211834000
G05  21075853.563 7 110754565.146 7        47.400    21075870.656 7  86302400.847 7        46.100    21075870.789 7  86302313.849 7        46.300
G19  21781453.742 7 114462585.633 7        42.700    21781472.738 5  89191590.717 5        31.400
G20  20599597.656 7 108251924.057 7        46.800    20599610.371 6  84352242.608 6        39.400
G17  24201987.977 6 127182280.232 6        36.400    24202007.219 4  99103195.753 4        27.600    24202007.348 6  99103132.751 6        37.700
G12  21925895.992 7 115221351.007 7        45.400    21925914.688 7  89782987.476 7        42.100    21925914.551 7  89782940.473 7        44.200
G06  22798284.516 6 119805970.246 6        40.100    22798301.781 5  93355451.634 5        35.900    22798302.125 7  93355359.637 7        42.000    22798304.898 7  89465584.989 7        47.200
G09  24567659.188 5 129103947.403 5        31.500    24567675.852 3 100600892.417 3        22.300    24567675.477 5 100600777.420 5        35.200    24567678.523 6  96409141.133 6        40.100
G22  25247291.477 5 132675418.093 5        30.100
G13  23114192.680 6 121466083.840 6        38.600    23114213.984 3  94648873.816 3        19.900
G25  23392370.086 6 122927737.261 6        36.600    23392392.250 4  95787920.469 4        29.100    23392391.730 6  95787845.459 6        38.800    23392395.715 7  91796648.103 7        45.000
G15  25287535.641 5 132886939.640 5        35.300    25287555.605 3 103548379.653 3        21.100    25287555.137 5 103548295.646 5        30.500
G11  21837835.086 7 114758800.512 7        45.700    21837848.539 5  89422612.492 5        34.800    21837848.113 7  89422535.497 7        47.800    21837853.586 8  85696653.965 8        51.000
> 2025  3 11 11  6 55.0000000  0 12       -.000212074000
G05  21075548.992 7 110752964.240 7        47.500    21075565.992 7  86301153.394 7        46.300    21075565.902 7  86301066.396 7        46.100
G19  21781826.680 7 114464544.204 7        42.700    21781845.457 5  89193116.868 5        31.000
G20  20599708.297 7 108252508.927 7        47.000    20599721.750 6  84352698.356 6        38.800
G17  24202441.156 6 127184663.713 6        36.200    24202460.664 4  99105053.033 4        26.400    24202460.715 6  99104990.022 6        37.200
G12  21925966.109 7 115221720.147 7        45.300    21925984.945 6  89783275.110 6        41.800    21925984.953 7  89783228.114 7        44.400
G06  22798405.953 6 119806610.665 6        40.300    22798423.629 6  93355950.659 6        36.000    22798423.766 7  93355858.662 7        42.300    22798426.824 7  89466063.220 7        47.200
G09  24568040.180 5 129105947.857 5        31.900    24568056.559 3 100602451.196 3        22.900    24568056.406 5 100602336.212 5        35.400    24568059.172 6  96410634.981 6        39.600
G22  25247814.469 4 132678163.065 4        29.600
G13  23113502.781 6 121462451.917 6        38.600    23113522.680 3  94646043.745 3        19.900
G25  23392134.031 6 122926493.768 6        36.300    23392155.645 4  95786951.502 4        29.300    23392155.547 6  95786876.499 6        39.000    23392159.059 7  91795719.517 7        45.100
G15  25286781.867 6 132882973.794 6        36.000    25286800.813 3 103545289.380 3        20.600    25286800.617 5 103545205.380 5        30.800
G11  21837801.398 7 114758622.943 7        45.800    21837814.586 5  89422474.130 5        34.900    21837814.516 7  89422397.129 7        47.900    21837819.789 8  85696521.363 8        51.000
> 2025  3 11 11  6 56.0000000  0 12       -.000212315000
G05  21075244.273 7 110751363.846 7        47.500    21075261.418 7  86299906.337 7        46.400    21075261.324 7  86299819.337 7        46.700
G19  21782199.375 7 114466503.252 7        42.900    21782218.215 5  89194643.395 5        30.500
G20  20599820.250 7 108253094.155 7        47.000    20599833.074 6  84353154.378 6        39.800
G17  24202894.078 5 127187047.471 5        35.700    24202914.238 4  99106910.518 4        27.700    24202914.281 6  99106847.534 6        37.400
G12  21926036.266 7 115222089.881 7        45.200    21926055.441 6  89783563.212 6        41.900    21926055.480 7  89783516.212 7        45.000
G06  22798527.945 6 119807251.120 6        40.000    22798545.539 6  93356449.712 6        36.000    22798545.633 7  93356357.713 7        42.400    22798548.645 7  89466541.472 7        46.800
G09  24568420.938 5                        32.000    24568437.316 3                        22.500    24568437.488 5 100603895.324 5        35.800    24568439.945 6  96412129.152 6        39.400
G22  25248335.781 4                        29.400
G13  23112811.469 6 121458820.021 6        38.500    23112831.438 3  94643213.665 3        20.100
G25  23391896.867 6 122925250.861 6        36.700    23391919.008 5  95785982.998 5        30.400    23391919.234 6  95785907.997 6        38.800    23391922.539 7  91794791.367 7        45.100
G15  25286025.891 5 132879007.829 5        35.400    25286045.922 3 103542199.020 3        21.100    25286046.000 5 103542115.004 5        31.700
G11  21837767.188 7 114758445.427 7        45.600    21837780.848 5  89422335.802 5        34.200    21837780.637 8  89422258.804 8        48.000    21837786.027 8  85696388.801 8        50.900
> 2025  3 11 11  6 57.0000000  0 12       -.000212555000
G05  21074939.836 7 110749763.924 7        47.100    21074956.938 7  86298659.651 7        46.400    21074957.078 7  86298572.647 7        46.800
G19  21782572.156 7 114468462.724 7        42.600    21782591.141 5  89196170.257 5        30.800
G20  20599931.992 7 108253679.686 7        47.000    20599944.512 6  84353610.636 6        39.600
G17  24203347.664 6 127189431.495 6        36.700    24203367.863 4  99108768.229 4        27.400    24203367.715 6  99108705.232 6        36.900
G12  21926106.891 7 115222460.178 7        45.000    21926125.766 7  89783851.754 7        42.100    21926125.926 7  89783804.750 7        45.000
G06  22798649.609 6 119807891.559 6        40.200    22798667.457 6  93356948.749 6        36.200    22798667.715 7  93356856.746 7        42.300    22798670.578 7  89467019.715 7        46.700
G09  24568802.797 5                        32.000    24568818.219 4                        24.700    24568818.309 6 100605454.799 6        36.200    24568820.859 6  96413623.646 6        39.600
G22  25248858.836 5 132683652.577 5        30.100
G13  23112119.359 6 121455188.123 6        38.800    23112140.285 3  94640383.629 3        20.600
G25  23391660.070 6 122924008.512 6        36.800    23391682.480 4  95785014.931 4        29.400    23391682.672 6  95784939.923 6        39.000    23391686.156 7  91793863.627 7        45.100
G15  25285270.883 5 132875041.703 5        35.000    25285291.117 3 103539108.520 3        21.700    25285291.137 5 103539024.528 5        32.000
G11  21837733.766 7 114758267.915 7        45.600    21837747.055 5  89422197.483 5        34.400    21837746.957 8  89422120.483 8        48.000    21837752.234 8  85696256.242 8        51.000
> 2025  3 11 11  6 58.0000000  0 12       -.000212795000
G05  21074635.336 7 110748164.475 7        47.100    21074652.500 7  86297413.331 7        46.100    21074652.707 7  86297326.330 7        47.000
G19  21782945.477 7 114470422.644 7        42.400    21782964.117 4  89197697.461 4        29.800
G20  20600043.359 7 108254265.533 7        47.200    20600055.836 6  84354067.138 6        39.300
G17  24203801.531 6 127191815.796 6        36.200    24203821.695 4  99110626.156 4        27.200    24203821.465 6  99110563.151 6        37.400
G12  21926177.250 7 115222831.040 7        45.000    21926196.367 7  89784140.731 7        42.100    21926196.574 7  89784093.732 7        45.100
G06  22798771.211 6 119808531.994 6        39.900    22798789.441 5  93357447.788 5        35.500    22798789.641 7  93357355.787 7        42.500    22798792.457 7  89467497.959 7        46.900
G09  24569182.344 5                        32.800    24569199.191 3                        22.500    24569199.094 5 100607014.590 5        35.800    24569201.777 6  96415118.432 6        40.200
G22  25249379.023 5                        30.100
G13  23111429.156 6 121451556.222 6        38.700    23111449.172 3  94637553.589 3        20.400
G25  23391423.617 6 122922766.715 6        36.600    23391446.195 4  95784047.306 4        29.400    23391446.500 6  95783972.289 6        39.000    23391449.859 7  91792936.309 7        45.100
G15  25284516.336 5 132871075.429 5        35.100    25284536.242 3 103536017.943 3        22.200    25284536.129 5 103535933.921 5        31.700
G11  21837699.844 7 114758090.422 7        44.900    21837713.258 5  89422059.178 5        33.800    21837713.156 8  89421982.178 8        48.000    21837718.480 8  85696123.700 8        50.900
> 2025  3 11 11  6 59.0000000  0 12       -.000213036000
G05  21074331.313 7 110746565.490 7        47.300    21074348.313 7  86296167.375 7        46.000    21074348.164 7  86296080.375 7        46.700
G19  21783318.352 7 114472382.988 7        42.200    21783337.242 4  89199224.995 4        29.400
G20  20600155.031 7 108254851.692 7        47.300    20600167.465 6  84354523.891 6        39.400
G17  24204255.039 6 127194200.362 6        36.700    24204275.465 4  99112484.286 4        26.000    24204274.910 6  99112421.279 6        37.300
G12  21926248.172 7 115223202.463 7        45.200    21926267.285 6  89784430.148 6        41.500    21926267.211 7  89784383.143 7        44.600
G06  22798893.242 6 119809172.418 6        40.100    22798911.332 5  93357946.810 5        35.800    22798911.516 7  93357854.811 7        42.700    22798914.273 7  89467976.193 7        46.900
G09  24569563.609 5 129113953.872 5        31.900    24569580.215 3 100608689.673 3        22.500    24569580.113 5 100608574.677 5        35.800    24569582.742 6  96416613.526 6        40.200
G22  25249901.797 4 132689141.392 4        29.900
G13  23110737.828 6 121447924.303 6        38.300    23110757.852 3  94634723.519 3        20.600
G25  23391187.563 6 122921525.456 6        36.400    23391210.066 4  95783080.086 4        29.100    23391210.520 6  95783005.076 6        38.700    23391213.688 7  91792009.394 7        45.100
G15  25283761.500 5 132867108.997 5        35.200    25283781.570 3 103532927.211 3        21.100    25283781.797 5 103532843.218 5        32.200
G11  21837665.828 7 114757912.944 7        44.900    21837679.473 5  89421920.878 5        33.700    21837679.465 7  89421843.878 7        47.700    21837684.684 8  85695991.164 8        50.900
> 2025  3 11 11  7  0.0000000  0 12       -.000213276000
G05  21074027.180 7 110744967.014 7        47.200    21074044.117 7  86294921.815 7        45.800    21074044.145 7  86294834.813 7        46.400
G19  21783691.375 7 114474343.810 7        42.300    21783710.352 4  89200752.898 4        29.900
G20  20600266.500 7 108255438.194 7        47.200    20600279.125 6  84354980.903 6        38.900
G17  24204708.883 6 127196585.222 6        37.200    24204729.242 4  99114342.653 4        26.100    24204728.754 6  99114279.647 6        36.900
G12  21926318.797 7 115223574.480 7        44.900    21926337.926 6  89784720.024 6        41.800    21926337.895 7  89784673.018 7        44.200
G06  22799014.992 6 119809812.866 6        39.900    22799033.113 5  93358445.854 5        35.000    22799033.414 7  93358353.859 7        42.600    22799036.082 7  89468454.445 7        46.900
G09  24569944.563 5 129115956.449 5        32.200    24569961.457 3 100610250.130 3        22.900    24569961.148 5 100610135.139 5        35.100    24569963.836 6  96418108.965 6        39.400
G22  25250425.664 4 132691885.553 4        28.900
G13  23110046.156 6 121444292.441 6        38.400    23110066.859 3  94631893.518 3        20.100
G25  23390951.406 6 122920284.800 6        36.500    23390973.938 4  95782113.331 4        28.900    23390974.586 6  95782038.324 6        38.400    23390977.566 7  91791082.918 7        44.900
G15  25283006.555 5 132863142.451 5        35.100    25283026.914 3 103529836.404 3        21.100    25283026.832 5 103529752.396 5        32.100
G11  21837632.273 7 114757735.514 7        44.600    21837645.711 5  89421782.620 5        33.700    21837645.535 7  89421705.616 7        47.600    21837650.934 8  85695858.663 8        51.000
> 2025  3 11 11  7  1.0000000  0 12       -.000213514000
G05  21073722.953 7 110743368.989 7        47.200    21073740.004 7  86293676.602 7        45.900    21073740.152 7  86293589.601 7        46.400
G19  21784064.484 7 114476305.035 7        42.400    21784083.563 4  89202281.129 4        29.800
G20  20600378.406 7 108256024.980 7        47.200    20600390.934 6  84355438.146 6        39.100
G17  24205162.586 6 127198970.344 6        36.500    24205183.141 4  99116201.202 4        27.100    24205182.262 6  99116138.205 6        36.700
G12  21926389.719 7 115223947.028 7        44.900    21926408.625 6  89785010.317 6        41.900    21926408.934 7  89784963.317 7        44.100
G06  22799137.008 6 119810453.283 6        40.200    22799154.953 5  93358944.879 5        35.900    22799155.246 7  93358852.875 7        42.600    22799157.992 7  89468932.671 7        46.800
G09  24570327.422 5 129117959.418 5        32.400    24570342.574 3 100611810.901 3        23.000    24570342.555 5 100611695.894 5        35.100    24570344.965 6  96419604.690 6        39.700
G22  25250946.219 4 132694629.503 4        29.900
G13  23109355.047 6 121440660.532 6        38.500    23109375.965 3  94629063.469 3        20.100
G25  23390715.766 6 122919044.665 6        36.800    23390737.832 4  95781146.983 4        28.300    23390738.129 6  95781071.982 6        38.200    23390741.531 7  91790156.836 7        45.300
G15  25282252.570 5 132859175.727 5        34.500    25282272.230 3 103526745.481 3        21.300    25282272.398 5 103526661.459 5        32.600
G11  21837598.617 7 114757558.066 7        44.900    21837611.891 5  89421644.347 5        34.700    21837611.824 7  89421567.340 7        47.300    21837617.242 8  85695726.152 8        50.800
> 2025  3 11 11  7  2.0000000  0 12       -.000213755000
G05  21073418.977 7 110741771.457 7        47.200    21073435.973 7  86292431.777 7        45.900    21073435.977 7  86292344.778 7        46.700
G19  21784437.688 7 114478266.712 7        42.400    21784456.883 5  89203809.709 5        30.200
G20  20600490.297 7 108256612.107 7        47.200    20600502.598 6  84355895.649 6        39.500
G17  24205616.953 6 127201355.731 6        36.300    24205637.023 4  99118059.955 4        26.500    24205636.469 6  99117996.972 6        37.100
G12  21926460.641 7 115224320.155 7        45.100    21926479.738 7  89785301.060 7        42.200    21926479.891 7  89785254.059 7        44.500
G06  22799259.219 6 119811093.714 6        40.200    22799276.941 6  93359443.915 6        36.000    22799277.008 7  93359351.909 7        42.400    22799279.941 7  89469410.909 7        46.900
G09  24570707.938 5 129119962.816 5        32.000    24570723.793 3 100613371.979 3        22.300    24570723.559 5 100613256.978 5        34.900    24570726.180 6  96421100.734 6        39.500
G22  25251469.555 4 132697373.322 4        28.900
G13  23108663.867 6 121437028.658 6        39.000    23108684.773 3  94626233.431 3        20.400
G25  23390479.430 6 122917805.102 6        36.300    23390501.906 4  95780181.080 4        28.500    23390502.066 6  95780106.078 6        38.600    23390505.617 7  91789231.183 7        45.300
G15  25281498.039 5 132855208.856 5        34.600    25281517.418 3 103523654.427 3        20.600    25281517.738 5 103523570.408 5        33.500
G11  21837564.523 7 114757380.652 7        45.000    21837578.172 5  89421506.098 5        33.600    21837578.148 7  89421429.097 7        47.800    21837583.422 8  85695593.669 8        50.800
> 2025  3 11 11  7  3.0000000  0 12       -.000213995000
G05  21073114.930 7 110740174.391 7        47.500    21073131.996 7  86291187.316 7        46.200    21073132.102 7  86291100.316 7        46.700
G19  21784811.289 7 114480228.812 7        42.400    21784830.117 5  89205338.610 5        30.700
G20  20600602.039 7 108257199.547 7        47.200    20600614.320 6  84356353.394 6        39.400
G17  24206071.234 6 127203741.386 6        36.400    24206090.871 4  99119918.941 4        27.500    24206090.215 6  99119855.947 6        37.100
G12  21926531.742 7 115224693.828 7        45.100    21926550.895 7  89785592.228 7        42.100    21926550.977 7  89785545.228 7        44.300
G06  22799381.141 6 119811734.116 6        40.000    22799398.898 6  93359942.918 6        36.500    22799398.781 7  93359850.923 7        42.200    22799401.832 7  89469889.129 7        47.000
G09  24571087.875 5 129121966.590 5        32.000    24571105.016 3 100614933.380 3        22.200    24571104.684 5 100614818.379 5        34.800    24571107.336 6  96422597.068 6        39.700
G22  25251990.750 4 132700116.934 4        29.100
G13  23107972.414 6 121433396.765 6        38.900    23107993.711 3  94623403.373 3        21.300
G25  23390243.922 6 122916566.074 6        36.200    23390266.176 4  95779215.604 4        29.200    23390266.191 6  95779140.596 6        38.700    23390269.926 7  91788305.927 7        45.500
G15  25280742.219 5 132851241.845 5        34.700    25280762.512 3 103520563.273 3        20.100    25280763.094 5 103520479.242 5        33.700
G11  21837531.211 7 114757203.240 7        45.200    21837544.457 5  89421367.857 5        34.400    21837544.395 7  89421290.851 7        47.700    21837549.574 8  85695461.182 8        50.500
> 2025  3 11 11  7  4.0000000  0 12       -.000214235000
G05  21072811.172 7 110738577.801 7        47.500    21072828.289 7  86289943.225 7        46.500    21072828.148 7  86289856.228 7        47.100
G19  21785184.969 7 114482191.344 7        42.500    21785203.672 5  89206867.861 5        31.200
G20  20600713.586 7 108257787.298 7        47.200    20600726.180 6  84356811.384 6        39.900
G17  24206525.047 6 127206127.303 6        36.100    24206544.715 4  99121778.126 4        27.300    24206544.777 6  99121715.120 6        37.500
G12  21926603.000 7 115225068.061 7        45.100    21926622.234 7  89785883.835 7        42.200    21926622.344 7  89785836.832 7        44.000
G06  22799502.914 6 119812374.495 6        40.500    22799520.734 6  93360441.921 6        36.700    22799520.801 7  93360349.920 7        42.200    22799523.609 7  89470367.332 7        46.700
G09  24571469.164 5 129123970.776 5        32.200    24571486.438 3 100616495.093 3        22.200    24571485.680 5 100616380.101 5        35.300    24571488.754 6  96424093.718 6        39.400
G22  25252512.422 4                        28.900
G13  23107281.820 6 121429764.860 6        38.800    23107302.598 3  94620573.333 3        21.100
G25  23390009.609 6 122915327.599 6        36.900    23390030.473 5  95778250.555 5        30.200    23390030.367 6  95778175.541 6        39.000    23390034.305 7  91787381.085 7        45.200
G15  25279986.266 5 132847274.638 5        34.700    25280007.492 3 103517471.931 3        20.100    25280008.082 5 103517387.944 5        33.200
G11  21837497.094 7 114757025.833 7        45.400    21837510.730 5  89421229.617 5        34.100    21837510.793 8  89421152.610 8        48.100    21837515.898 8  85695328.701 8        50.800
> 2025  3 11 11  7  5.0000000  0 12       -.000214476000
G05  21072506.938 7 110736981.717 7        47.300    21072524.555 7  86288699.528 7        46.400    21072524.480 7  86288612.528 7        47.000
G19  21785558.016 7 114484154.343 7        42.700    21785577.270 5  89208397.465 5        30.100
G20  20600825.492 7 108258375.384 7        47.100    20600838.039 6  84357269.630 6        39.200
G17  24206978.055 5 127208513.514 5        35.900    24206998.758 4  99123637.534 4        26.900    24206998.281 6  99123574.523 6        37.400
G12  21926674.945 7 115225442.877 7        45.000    21926693.535 7  89786175.894 7        42.500    21926693.418 7  89786128.896 7        44.500
G06  22799624.836 6 119813014.913 6        39.900    22799642.449 6  93360940.943 6        36.500    22799642.496 7  93360848.940 7        42.600    22799645.453 7  89470845.559 7        46.900
G09  24571852.070 5 129125975.413 5        32.900    24571867.918 3 100618057.142 3        22.600    24571867.160 5 100617942.159 5        35.600    24571870.035 6  96425590.694 6        39.700
G22  25253034.469 5                        30.300
G13  23106590.758 6 121426132.980 6        38.800    23106611.605 3  94617743.278 3        20.100
G25  23389773.031 6 122914089.701 6        36.600    23389794.809 5  95777285.949 5        30.100    23389795.496 6  95777210.945 6        38.900    23389798.711 7  91786456.672 7        45.200
G15  25279232.219 5 132843307.333 5        34.800    25279252.598 3 103514380.554 3        20.900    25279253.383 5 103514296.554 5        33.500
G11  21837463.680 7 114756848.470 7        44.900    21837476.938 5  89421091.407 5        34.400    21837476.809 7  89421014.405 7        47.800    21837482.215 8  85695196.253 8        50.900
> 2025  3 11 11  7  6.0000000  0 12       -.000214716000
G05  21072203.695 7 110735386.085 7        46.900    21072220.906 7  86287456.185 7        46.400    21072220.930 7  86287369.189 7        47.000
G19  21785931.703 7 114486117.759 7        43.000    21785950.887 4  89209927.400 4        29.700
G20  20600937.414 7 108258963.763 7        46.900    20600950.023 6  84357728.109 6        39.400
G17  24207432.031 5 127210899.981 5        35.900    24207452.816 4  99125497.136 4        27.700    24207452.422 6  99125434.138 6        37.600
G12  21926745.641 7 115225818.246 7        45.300    21926764.883 7  89786468.386 7        42.000    21926764.805 7  89786421.385 7        44.500
G06  22799746.539 6 119813655.291 6        40.200    22799764.410 6  93361439.934 6        36.500    22799764.523 7  93361347.939 7        42.400    22799767.410 7  89471323.763 7        47.000
G09  24572233.219 5 129127980.448 5        32.300    24572249.445 3 100619619.528 3        22.900    24572249.113 5 100619504.529 5        35.900    24572251.613 6  96427087.968 6        39.800
G22  25253556.445 4                        29.600
G13  23105900.039 6 121422501.095 6        39.200    23105920.488 3  94614913.259 3        19.900
G25  23389537.766 6 122912852.345 6        36.900    23389559.363 5  95776321.772 5        30.200    23389559.941 6  95776246.767 6        38.700    23389563.320 7  91785532.668 7        44.700
G15  25278477.008 5 132839339.876 5        35.000    25278497.688 3 103511289.044 3        20.400    25278498.629 5 103511205.031 5        33.500
G11  21837430.055 7 114756671.105 7        45.000    21837443.086 5  89420953.202 5        34.200    21837442.992 7  89420876.198 7        47.900    21837448.445 8  85695063.804 8        50.800
> 2025  3 11 11  7  7.0000000  0 12       -.000214956000
G05  21071900.203 7 110733790.987 7        47.600    21071917.320 7  86286213.255 7        46.300    21071917.227 7  86286126.256 7        47.000
G19  21786305.391 7 114488081.664 7        43.200    21786324.660 5  89211457.706 5        30.400
G20  20601049.383 7 108259552.500 7        47.200    20601062.059 6  84358186.867 6        39.500
G17  24207887.039 5 127213286.764 5        35.500    24207907.121 4  99127356.994 4        26.400    24207906.383 6  99127293.996 6        37.700
G12  21926817.500 7 115226194.233 7        45.300    21926836.434 6  89786761.361 6        41.700    21926836.453 7  89786714.355 7        44.900
G06  22799868.820 6 119814295.725 6        40.700    22799886.219 6  93361938.971 6        36.300    22799886.582 7  93361846.966 7        42.600    22799889.273 7  89471802.002 7        47.100
G09  24572615.195 5 129129985.933 5        32.800    24572631.043 3 100621182.256 3        22.500    24572630.430 5 100621067.260 5        35.500    24572633.156 6  96428585.585 6        39.700
G22  25254077.367 4 132711089.791 4        29.900
G13  23105209.148 6 121418869.253 6        38.800    23105229.391 3  94612083.257 3        20.100
G25  23389302.008 6 122911615.586 6        37.200    23389324.059 4  95775358.056 4        29.900    23389324.258 6  95775283.047 6        38.300    23389328.031 7  91784609.104 7        44.600
G15  25277721.961 5 132835372.313 5        34.900    25277742.785 3 103508197.433 3        20.900    25277743.605 5 103508113.421 5        33.000
G11  21837396.070 7 114756493.809 7        45.100    21837409.473 5  89420815.049 5        34.400    21837409.340 8  89420738.041 8        48.100    21837414.688 8  85694931.405 8        50.500
> 2025  3 11 11  7  8.0000000  0 12       -.000215195000
G05  21071596.766 7 110732196.410 7        47.800    21071613.922 7  86284970.729 7        46.000    21071613.637 7  86284883.732 7        46.700
G19  21786679.492 7 114490046.056 7        42.500    21786698.441 4  89212988.392 4        29.700
G20  20601161.508 7 108260141.596 7        47.100    20601174.043 6  84358645.905 6        39.200
G17  24208341.016 5 127215673.854 5        35.500    24208361.441 4  99129217.085 4        27.000    24208360.184 6  99129154.093 6        37.200
G12  21926889.391 7 115226570.821 7        45.500    21926908.133 6  89787054.799 6        41.500    21926908.051 7  89787007.795 7        44.500
G06  22799990.406 6 119814936.203 6        40.500    22800008.219 6  93362438.046 6        36.000    22800008.426 7  93362346.031 7        42.600    22800011.164 7  89472280.269 7        47.000
G09  24572997.023 5 129131991.904 5        32.000    24573012.754 3 100622745.352 3        22.300    24573012.531 5 100622630.348 5        35.200    24573014.922 6  96430083.549 6        39.300
G22  25254601.133 4 132713832.641 4        29.400
G13  23104518.156 6 121415237.471 6        38.800    23104538.430 3  94609253.302 3        20.400
G25  23389067.492 6 122910379.432 6        37.400    23389088.898 4  95774394.818 4        29.800    23389088.996 6  95774319.814 6        38.000    23389092.813 7  91783685.997 7        44.700
G15  25276966.727 5 132831404.635 5        35.300    25276987.961 3 103505105.747 3        21.300    25276988.484 5 103505021.729 5        32.900
G11  21837362.438 7 114756316.574 7        45.400    21837375.836 5  89420676.936 5        34.000    21837375.891 8  89420599.936 8        48.000    21837380.926 8  85694799.054 8        50.800
> 2025  3 11 11  7  9.0000000  0 12       -.000215435000
G05  21071293.383 7 110730602.353 7        47.700    21071310.508 7  86283728.613 7        45.900    21071310.461 7  86283641.614 7        46.700
G19  21787053.398 7 114492010.923 7        42.300    21787072.219 5  89214519.454 5        30.500
G20  20601273.539 7 108260731.045 7        47.000    20601286.336 6  84359105.215 6        39.200
G17  24208794.641 5 127218061.268 5        35.500    24208815.781 4  99131077.426 4        28.000    24208814.730 6  99131014.435 6        37.600
G12  21926961.125 7 115226948.006 7        45.200    21926979.820 6  89787348.704 6        41.400    21926979.930 7  89787301.707 7        44.500
G06  22800112.719 6 119815576.701 6        40.500    22800129.992 6  93362937.123 6        36.200    22800130.496 7  93362845.123 7        43.000    22800133.023 7  89472758.565 7        47.000
G09  24573378.734 5 129133998.318 5        31.600    24573394.668 3 100624308.796 3        23.200    24573393.914 5 100624193.798 5        34.500    24573396.582 6  96431581.854 6        39.500
G22  25255122.563 5 132716575.388 5        30.300
G13  23103827.477 6 121411605.728 6        39.500    23103847.375 3  94606423.354 3        19.900
G25  23388833.344 6 122909143.870 6        37.300    23388853.730 5  95773432.032 5        30.400    23388853.422 6  95773357.020 6        37.800    23388857.746 7  91782763.331 7        44.900
G15  25276211.805 5 132827436.857 5        35.000    25276232.906 3 103502013.966 3        21.700    25276233.414 5 103501929.980 5        32.600
G11  21837328.844 7 114756139.397 7        45.600    21837341.941 5  89420538.876 5        34.300    21837341.871 7  89420461.870 7        47.900    21837347.246 8  85694666.742 8        50.700
> 2025  3 11 11  7 10.0000000  0 12       -.000215675000
G05  21070989.961 7 110729008.783 7        47.200    21071007.363 7  86282486.876 7        45.700    21071007.117 7  86282399.875 7        46.700
G19  21787427.508 7 114493976.229 7        42.400    21787446.207 5  89216050.869 5        30.600
G20  20601385.914 7 108261320.807 7        47.200    20601398.578 6  84359564.771 6        39.200
G17  24209249.945 6 127220448.943 6        36.400    24209270.125 4  99132937.974 4        26.600    24209269.121 6  99132874.981 6        37.300
G12  21927032.398 7 115227325.761 7        45.100    21927051.844 6  89787643.056 6        41.300    21927051.605 7  89787596.052 7        44.400
G06  22800234.172 6 119816217.205 6        40.500    22800251.949 6  93363436.218 6        36.300    22800252.098 7  93363344.214 7        43.000    22800254.855 7  89473236.860 7        46.700
G09  24573759.266 5 129136005.149 5        30.800    24573776.543 3 100625872.564 3        22.600    24573775.785 5 100625757.564 5        34.900    24573778.418 6  96433080.465 6        39.800
G22  25255644.305 4                        29.900
G13  23103136.328 6 121407974.006 6        39.400    23103156.215 3  94603593.449 3        19.300
G25  23388598.297 6 122907908.854 6        37.400    23388618.785 5  95772469.667 5        30.200    23388618.117 6  95772394.674 6        37.600    23388622.758 7  91781841.078 7        45.000
G15  25275456.883 5 132823468.936 5        34.700    25275477.871 3 103498922.088 3        21.300    25275478.047 5 103498838.099 5        33.100
G11  21837295.234 7 114755962.232 7        45.700    21837308.289 5  89420400.823 5        34.500    21837308.250 8  89420323.822 8        48.100    21837313.547 8  85694534.443 8        51.000
> 2025  3 11 11  7 11.0000000  0 12       -.000215916000
G05  21070686.789 7 110727415.650 7        47.100    21070704.172 7  86281245.479 7        45.800    21070704.266 7  86281158.480 7        46.500
G19  21787801.297 7 114495941.946 7        42.700    21787820.324 5  89217582.590 5        30.300
G20  20601498.156 7 108261910.849 7        47.100    20601510.824 6  84360024.542 6        39.500
G17  24209704.367 6 127222836.865 6        36.100    24209724.531 4  99134798.722 4        26.700    24209723.559 6  99134735.724 6        37.700
G12  21927104.508 7 115227704.052 7        45.000    21927123.727 6  89787937.822 6        41.400    21927123.848 7  89787890.819 7        44.200
G06  22800356.398 6 119816857.669 6        40.400    22800373.938 6  93363935.273 6        36.600    22800373.785 7  93363843.277 7        43.000    22800376.789 7  89473715.126 7        46.800
G09  24574140.883 5 129138012.360 5        30.800    24574158.531 3 100627436.639 3        21.800    24574158.004 5 100627321.644 5        34.600    24574160.336 6  96434579.369 6        39.400
G22  25256167.109 4 132722060.302 4        29.900
G13  23102445.164 6 121404342.254 6        39.200    23102465.145 3  94600763.519 3        19.600
G25  23388363.180 6 122906674.372 6        37.500    23388383.961 5  95771507.737 5        30.600    23388383.336 6  95771432.733 6        38.200    23388387.801 7  91780919.216 7        44.700
G15  25274701.375 5 132819500.831 5        35.000    25274722.781 3 103495830.068 3        21.700    25274722.496 5 103495746.073 5        33.300
G11  21837261.313 7 114755785.060 7        46.100    21837274.688 5  89420262.770 5        34.200    21837274.488 8  89420185.761 8        48.300    21837279.836 8  85694402.138 8        51.200
> 2025  3 11 11  7 12.0000000  0 12       -.000216156000
G05  21070383.766 7 110725823.009 7        47.300    21070401.027 7  86280004.465 7        45.900    21070401.078 7  86279917.468 7        46.600
G19  21788175.320 7 114497908.135 7        43.100    21788194.406 4  89219114.680 4        29.600
G20  20601610.680 7 108262501.235 7        47.300    20601623.180 6  84360484.583 6        39.400
G17  24210158.484 5 127225225.085 5        35.900    24210178.949 4  99136659.701 4        27.000    24210178.270 6  99136596.695 6        37.900
G12  21927176.523 7 115228082.930 7        45.100    21927195.848 6  89788233.046 6        41.300    21927195.840 7  89788186.045 7        44.500
G06  22800477.375 6 119817498.165 6        40.300    22800495.813 6  93364434.359 6        36.100    22800495.996 7  93364342.361 7        43.200    22800498.648 7  89474193.417 7        47.100
G09  24574522.328 5 129140020.015 5        31.800    24574540.566 3 100629001.036 3        22.600    24574540.027 5 100628886.051 5        35.100    24574542.301 6  96436078.603 6        39.400
G22  25256689.391 5 132724802.511 5        30.100
G13  23101753.758 6 121400710.536 6        39.000    23101774.098 3  94597933.611 3        19.300
G25  23388128.039 6 122905440.467 6        37.300    23388149.035 5  95770546.254 5        30.200    23388148.461 6  95770471.249 6        38.400    23388152.965 7  91779997.791 7        44.900
G15  25273946.219 5 132815532.612 5        34.900    25273967.719 3 103492737.983 3        21.800    25273968.133 5 103492653.970 5        33.200
G11  21837227.758 7 114755607.931 7        45.700    21837240.980 5  89420124.747 5        34.100    21837240.797 8  89420047.736 8        48.000    21837246.055 8  85694269.865 8        51.000
> 2025  3 11 11  7 13.0000000  0 12       -.000216394000
G05  21070080.758 7 110724230.860 7        47.200    21070098.152 7  86278763.837 7        46.000    21070097.996 7  86278676.840 7        46.800
G19  21788550.070 7 114499874.766 7        42.900    21788568.703 4  89220647.117 4        29.600
G20  20601723.383 7 108263091.943 7        47.200    20601735.535 6  84360944.879 6        39.900
G17  24210613.445 6 127227613.593 6        36.100    24210633.527 4  99138520.888 4        27.000    24210633.152 6  99138457.888 6        37.500
G12  21927248.875 7 115228462.385 7        45.100    21927268.141 6  89788528.719 6        41.600    21927267.965 7  89788481.717 7        44.500
G06  22800599.438 6 119818138.661 6        40.600    22800617.777 6  93364933.447 6        36.400    22800617.977 7  93364841.447 7        43.200    22800620.473 7  89474671.702 7        47.000
G09  24574904.297 5 129142028.116 5        31.300    24574922.844 3 100630565.785 3        21.700    24574922.512 5 100630450.806 5        35.400    24574924.520 6  96437578.148 6        39.400
G22  25257211.086 5 132727544.523 5        30.100
G13  23101062.438 6 121397078.826 6        38.600    23101082.965 3  94595103.698 3        19.600
G25  23387893.273 6 122904207.142 6        37.100    23387914.383 4  95769585.212 4        29.700    23387913.957 6  95769510.202 6        38.700    23387918.363 7  91779076.787 7        44.600
G15  25273190.344 5 132811564.235 5        34.800    25273212.602 3 103489645.757 3        21.300    25273213.129 5 103489561.764 5        33.200
G11  21837194.141 7 114755430.828 7        45.500    21837207.246 5  89419986.744 5        34.000    21837207.109 7  89419909.734 7        47.900    21837212.406 8  85694137.609 8        50.800
> 2025  3 11 11  7 14.0000000  0 12       -.000216635000
G05  21069778.383 7 110722639.145 7        47.400    21069795.184 7  86277523.545 7        46.300    21069795.043 7  86277436.545 7        46.700
G19  21788923.938 7 114501841.796 7        42.400    21788943.020 4  89222179.868 4        29.900
G20  20601835.570 7 108263682.925 7        47.200    20601848.035 6  84361405.384 6        39.800
G17  24211067.852 6 127230002.318 6        36.300    24211087.996 4  99140382.257 4        27.000    24211087.836 6  99140319.263 6        37.600
G12  21927321.398 7 115228842.353 7        44.800    21927340.422 6  89788824.794 6        41.400    21927340.410 7  89788777.790 7        44.600
G06  22800721.719 6 119818779.108 6        40.200    22800739.637 6  93365432.490 6        36.700    22800739.355 7  93365340.493 7        43.200    22800742.355 7  89475149.956 7        47.100
G09  24575287.047 5 129144036.556 5        31.800    24575305.004 3 100632130.818 3        21.300    24575304.621 5 100632015.834 5        35.400    24575306.652 6  96439077.983 6        39.600
G22  25257732.703 5 132730286.389 5        30.800
G13  23100370.555 6 121393447.076 6        38.400    23100391.871 3  94592273.773 3        19.900
G25  23387659.156 6 122902974.319 6        37.400    23387679.660 4  95768624.555 4        29.800    23387679.504 6  95768549.557 6        38.400    23387683.746 7  91778156.167 7        45.000
G15  25272435.258 5 132807595.683 5        34.800    25272457.410 3 103486553.392 3        21.700    25272457.480 5 103486469.399 5        33.600
G11  21837160.430 7 114755253.699 7        45.000    21837173.590 5  89419848.718 5        34.200    21837173.609 7  89419771.709 7        47.600    21837178.699 8  85694005.337 8        51.000
