     2.11           OBSERVATION DATA    G (GPS)             RINEX VERSION / TYPE
teqc  2008Feb15                         20090701 00:35:01UTCPGM / RUN BY / DATE
Linux 2.4.20-8|Pentium IV|gcc -static|Linux|486/DX+         COMMENT
     2.10           Observation data    G (GPS)             COMMENT
sbf2rin                                 (01-JUL-09 00:35)   COMMENT
LLI: only bit 0 (loss of lock bit) supported                COMMENT
ROAP                                                        MARKER NAME
13402M006                                                   MARKER NUMBER
HEP                 ROA                                     OBSERVER / AGENCY
1225                SEPT POLARX2        2.7.0               REC # / TYPE / VERS
3392                SEN67157596+CR  NONE                    ANT # / TYPE
  5105509.7546  -555200.6252  3769790.2558                  APPROX POSITION XYZ
        1.1113       -0.3808       -0.0234                  ANTENNA: DELTA H/E/N
     1     1                                                WAVELENGTH FACT L1/2
     5    C1    L1    L2    P2    P1                        # / TYPES OF OBSERV
    30.0000                                                 INTERVAL
  2009     6    30     0     0    0.0000000     GPS         TIME OF FIRST OBS
                                                            COMMENT
                                                            END OF HEADER
 09  6 30  0  0  0.0000000  0 10G22G 7G 3G 6G11G32G 8G16G18G19
  21588975.128 9 113450866.879 9  88403263.690 9  21588969.447 9  21588974.094 9
  24181922.872 8 127076873.653 8  99020940.075 6  24181919.278 6  24181922.343 6
  20098990.272 9 105620965.615 9  82302051.293 9  20098987.221 9  20098989.213 9
  20726622.646 9 108919212.942 9  84872125.502 9  20726619.880 9  20726621.916 9
  23491958.892 8 123451075.892 8  96195635.528 6  23491955.509 6  23491959.001 6
  24354785.371 7 127985265.800 7
  24977573.923 7 131258044.895 7 102278985.117 5  24977573.259 5  24977573.024 5
  22419962.756 9 117817731.702 9  91806027.109 8  22419958.778 8  22419961.663 8
  23677440.365 8 124425842.168 8  96955206.485 7  23677436.609 7  23677439.389 7
  20989383.061 9 110300000.393 9  85948050.941 9  20989377.529 9  20989381.464 9
 09  6 30  0  0 30.0000000  0 10G22G 7G 3G 6G11G32G 8G16G18G19
  21593308.277 9 113473639.875 9  88421008.885 9  21593302.846 9  21593307.712 9
  24188497.787 7 127111429.623 7  99047866.800 6  24188494.608 6  24188498.077 6
  20099958.297 9 105626052.165 9  82306014.834 9  20099955.147 9  20099957.295 9
  20730215.031 9 108938091.152 9  84886835.795 9  20730212.015 9  20730214.318 9
  23475999.754 8 123367208.148 8  96130284.034 6  23475996.550 6  23475999.297 6
  24333411.537 7 127872941.780 7  99641245.52915  24333408.038 5  24333410.465 5
  24972176.096 7 131229680.576 7 102256883.032 4  24972175.347 4  24972175.508 4
  22437952.040 9 117912268.413 9  91879692.074 8  22437948.536 8  22437951.305 8
  23690609.622 8 124495048.916 8  97009133.789 7  23690606.163 7  23690608.798 7
  20982297.156 9 110262763.329 9  85919035.038 9  20982291.422 9  20982295.671 9
 09  6 30  0  1  0.0000000  0 10G22G 7G 3G 6G11G32G 8G16G18G19
  21597745.829 9 113496958.783 9  88439179.468 9  21597740.437 9  21597745.319 9
  24195156.027 7 127146416.573 7  99075129.364 6  24195152.466 6  24195155.655 6
  20100993.074 9 105631490.067 9  82310252.156 9  20100990.204 9  20100991.885 9
  20733861.378 9 108957252.283 9  84901766.535 9  20733858.115 9  20733860.451 9
  23460071.716 8 123283505.647 8  96065061.334 6  23460068.794 6  23460070.675 6
  24312041.921 7 127760641.222 7  99553738.636 5  24312039.077 5  24312038.831 5
  24966882.250 7 131201859.214 7 102235204.046 4  24966881.193 4  24966881.023 4
  22455995.159 9 118007082.774 9  91953573.387 8  22455991.510 8  22455994.112 8
  23703849.427 8 124564622.542 8  97063347.015 7  23703845.485 7  23703848.672 7
  20975248.617 9 110225722.305 9  85890171.889 9  20975243.015 9  20975246.989 9
 09  6 30  0  1 30.0000000  0 10G22G 7G 3G 6G11G32G 8G16G18G19
  21602286.947 9 113520822.932 9  88457774.916 9  21602281.883 9  21602286.267 9
  24201895.380 7 127181832.737 7  99102726.358 6  24201892.446 6  24201895.187 6
  20102094.900 9 105637279.821 9  82314763.650 9  20102091.879 9  20102093.818 9
  20737561.479 9 108976696.875 9  84916918.158 9  20737558.513 9  20737560.488 9
  23444175.122 8 123199969.104 8  95999967.959 7  23444172.349 7  23444174.483 7
  24290676.134 7 127648366.816 7  99466252.115 5  24290673.882 5  24290675.528 5
  24961691.881 7 131174580.983 7 102213948.288 5  24961690.652 5  24961690.250 5
  22474089.843 9 118102172.766 9  92027669.484 8  22474086.439 8  22474088.883 8
  23717158.199 8 124634560.954 8  97117844.492 6  23717154.171 6  23717157.343 6
  20968237.493 9 110188878.272 9  85861462.255 9  20968231.806 9  20968235.804 9
 09  6 30  0  2  0.0000000  0 10G22G 7G 3G 6G11G32G 8G16G18G19
  21606931.714 9 113545231.363 9  88476794.478 9  21606926.437 9  21606930.990 9
  24208716.847 7 127217675.682 7  99130655.921 6  24208713.210 6  24208715.245 6
  20103263.794 9 105643421.994 9  82319549.756 9  20103260.706 9  20103262.729 9
  20741315.878 9 108996425.707 9  84932291.272 9  20741312.711 9  20741314.706 9
  23428310.206 8 123116599.126 8  95935004.373 6  23428307.548 6  23428309.756 6
  24269316.703 7 127536121.159 7  99378787.967 5  24269313.898 5  24269316.534 5
  24956603.754 7 131147846.581 7 102193116.298 5  24956602.055 5  24956603.349 5
  22492236.971 9 118197535.921 9  92101978.425 8  22492233.493 8  22492235.729 8
  23730536.447 8 124704862.116 8  97172624.593 7  23730531.966 7  23730535.260 7
  20961263.943 9 110152232.185 9  85832906.866 9  20961258.270 9  20961262.445 9
 09  6 30  0  2 30.0000000  0 10G22G 7G 3G 6G11G32G 8G16G18G19
  21611679.941 9 113570183.171 9  88496237.451 9  21611674.749 9  21611679.188 9
  24215617.799 7 127253943.376 7  99158916.470 6  24215614.826 6  24215616.804 6
  20104499.692 9 105649917.171 9  82324610.930 9  20104496.573 9  20104498.621 9
  20745124.313 9 109016439.239 9  84947886.233 9  20745121.090 9  20745123.355 9
  23412477.293 8 123033396.030 8  95870170.809 6  23412474.536 6  23412476.774 6
  24247962.954 7 127423906.959 7  99291348.399 5  24247960.265 5  24247961.615 5
  24951620.042 7 131121656.575 7 102172708.564 4  24951617.734 4  24951619.183 4
  22510435.701 8 118293170.123 8  92176498.575 8  22510432.298 8  22510434.450 8
  23743982.567 8 124775523.834 8  97227685.677 7  23743978.741 7  23743981.614 7
  20954328.170 9 110115784.841 9  85804506.339 9  20954322.626 9  20954326.665 9
 09  6 30  0  3  0.0000000  0 10G22G 7G 3G 6G11G32G 8G16G18G19
  21616531.367 9 113595677.660 9  88516103.296 9  21616526.085 9  21616530.550 9
  24222599.638 7 127290633.583 7  99187506.251 6  24222596.955 6  24222598.686 6
  20105802.969 9 105656766.016 9  82329947.690 9  20105799.829 9  20105801.895 9
  20748987.020 9 109036738.043 9  84963703.486 9  20748983.911 9  20748986.234 9
  23396676.260 8 122950360.303 8  95805467.657 7  23396672.868 7  23396675.920 7
  24226615.733 7 127311726.789 7  99203935.320 6  24226613.318 6  24226614.001 6
  24946740.336 7 131096011.270 7 102152725.161 5  24946737.050 5  24946739.215 5
  22528685.175 9 118389072.914 9  92251228.011 8  22528681.760 8  22528684.323 8
  23757497.413 8 124846544.367 8  97283026.375 7  23757493.360 7  23757495.782 7
  20947430.427 9 110079537.087 9  85776261.342 9  20947424.782 9  20947429.112 9
 09  6 30  0  3 30.0000000  0 10G22G 7G 3G 6G11G32G 8G16G18G19
  21621485.637 9 113621713.435 9  88536390.928 9  21621480.445 9  21621485.001 9
  24229661.565 7 127327743.877 7  99216423.357 6  24229659.036 6  24229660.516 6
  20107173.904 9 105663969.676 9  82335560.933 9  20107170.755 9  20107172.755 9
  20752904.198 9 109057322.851 9  84979743.595 9  20752901.100 9  20752903.214 9
  23380906.588 8 122867492.453 8  95740895.318 6  23380903.395 6  23380906.333 6
  24205275.542 7 127199583.533 7  99116551.012 5  24205273.140 5  24205274.002 5
  24941965.075 7 131070911.279 7 102133166.708 5  24941960.496 5  24941962.628 5
  22546985.596 9 118485242.212 9  92326165.125 8  22546981.936 8  22546984.837 8
  23771079.983 8 124917921.572 8  97338644.984 7  23771076.189 7  23771078.765 7
  20940571.051 9 110043489.919 9  85748172.648 9  20940565.525 9  20940569.231 9
 09  6 30  0  4  0.0000000  0 10G22G 7G 3G 6G11G32G 8G16G18G19
  21626543.064 9 113648289.778 9  88557099.774 9  21626537.497 9  21626542.235 9
  24236802.882 7 127365272.025 7  99245666.050 6  24236801.087 6  24236802.419 6
  20108612.183 9 105671528.335 9  82341450.799 9  20108609.130 9  20108611.116 9
  20756875.913 9 109078194.286 9  84996007.050 9  20756872.847 9  20756875.057 9
  23365169.494 8 122784793.088 8  95676454.291 7  23365165.799 7  23365169.263 7
  24183942.293 7 127087479.760 7  99029197.453 6  24183940.514 6  24183941.709 6
  24937291.722 7 131046357.005 7 102114033.520 4  24937288.457 4  24937289.333 4
  22565336.607 9 118581675.627 9  92401308.037 8  22565332.526 8  22565335.512 8
  23784730.233 8 124989652.949 8  97394539.541 6  23784725.911 6  23784729.036 6
  20933749.534 9 110007644.522 9  85720241.182 9  20933744.229 9  20933748.281 9
 09  6 30  0  4 30.0000000  0 10G22G 7G 3G 6G11G32G 8G16G18G19
  21631703.121 9 113675406.008 9  88578229.307 9  21631697.945 9  21631702.432 9
  24244022.743 7 127403215.821 7  99275232.654 6  24244021.379 6  24244023.341 6
  20110118.265 9 105679442.633 9  82347617.788 9  20110115.193 9  20110117.180 9
  20760902.174 9 109099352.821 9  85012494.225 9  20760899.259 9  20760901.278 9
  23349464.652 8 122702262.561 8  95612144.835 7  23349460.842 7  23349464.000 7
  24162618.294 7 126975418.171 7  98941876.747 6  24162615.902 6  24162617.686 6
  24932721.700 7 131022348.838 7 102095325.869 5  24932719.367 5  24932720.930 5
  22583736.896 9 118678370.755 9  92476654.884 8  22583733.184 8  22583736.130 8
  23798447.524 8 125061736.755 8  97450708.753 6  23798442.620 6  23798445.959 6
  20926967.113 9 109972001.678 9  85692467.541 9  20926961.569 9  20926965.549 9
 09  6 30  0  5  0.0000000  0 10G22G 7G 3G 6G11G32G 8G16G18G19
  21636965.929 9 113703061.409 9  88599778.970 9  21636960.669 9  21636965.101 9
  24251322.363 7 127441572.784 7  99305121.172 6  24251319.842 6  24251322.118 6
  20111692.075 9 105687712.910 9  82354062.162 9  20111689.083 9  20111690.890 9
  20764983.272 9 109120799.172 9  85029205.668 9  20764980.191 9  20764982.428 9
  23333792.010 8 122619901.189 8  95547967.191 7  23333788.405 7  23333791.211 7
  24141301.618 7 126863401.550 7  98854591.082 6  24141299.834 6  24141300.983 6
  24928258.080 7 130998887.082 7 102077043.967 5  24928255.702 5  24928256.132 5
  22602187.025 9 118775325.337 9  92552203.892 8  22602182.987 8  22602186.066 8
  23812231.106 8 125134170.640 8  97507150.729 6  23812226.294 6  23812229.642 6
  20920223.347 9 109936562.213 9  85664852.379 9  20920217.661 9  20920221.715 9
 09  6 30  0  5 30.0000000  0 10G22G 7G 3G 6G11G32G 8G16G18G19
  21642330.700 9 113731254.669 9  88621747.748 9  21642325.658 9  21642329.897 9
  24258699.481 7 127480340.822 7  99335330.033 6  24258697.069 6  24258699.966 6
  20113333.734 9 105696339.903 9  82360784.497 9  20113330.522 9  20113332.662 9
  20769119.276 9 109142533.692 9  85046141.656 9  20769116.349 9  20769118.421 9
  23318151.579 8 122537709.478 8  95483921.739 7  23318147.652 7  23318150.878 7
  24119994.566 7 126751432.498 7  98767342.492 6  24119992.883 6  24119993.813 6
  24923897.490 7 130975971.861 7 102059187.962 5  24923895.313 5  24923895.294 5
  22620685.585 8 118872537.197 8  92627953.398 8  22620681.778 8  22620684.755 8
  23826080.464 8 125206952.555 8  97563863.894 6  23826076.224 6  23826080.041 6
  20913517.906 9 109901327.030 9  85637396.403 9  20913512.490 9  20913516.889 9
 09  6 30  0  6  0.0000000  0 10G22G 7G 3G 6G11G32G 8G16G18G19
  21647798.019 9 113759984.608 9  88644134.721 9  21647792.420 9  21647797.067 9
  24266154.876 7 127519517.441 7  99365857.279 6  24266151.941 6  24266154.816 6
  20115043.403 9 105705324.545 9  82367785.519 9  20115040.378 9  20115042.358 9
  20773310.214 9 109164557.251 9  85063302.867 9  20773307.374 9  20773309.247 9
  23302542.970 8 122455688.046 8  95420008.943 7  23302538.968 7  23302542.761 7
  24098696.592 7 126639513.747 7  98680133.108 5  24098695.236 5  24098696.689 5
  24919640.950 7 130953603.386 7 102041757.992 5  24919637.326 5  24919639.466 5
  22639232.680 8 118970003.775 8  92703901.374 8  22639228.984 8  22639231.677 8
  23839996.411 8 125280080.532 8  97620846.741 6  23839992.401 6  23839995.624 6
  20906852.202 9 109866296.904 9  85610100.209 9  20906846.470 9  20906850.515 9
 09  6 30  0  6 30.0000000  0 10G22G 7G 3G 6G11G32G 8G16G18G19
  21653366.863 9 113789250.059 9  88666938.967 9  21653361.569 9  21653366.132 9
  24273687.070 7 127559100.289 7  99396701.039 6  24273683.397 6  24273686.699 6
  20116821.097 9 105714667.267 9  82375065.559 9  20116818.054 9  20116820.207 9
  20777556.495 9 109186870.198 9  85080689.569 9  20777553.249 9  20777555.436 9
  23286966.998 8 122373837.047 8  95356228.981 6  23286962.305 6  23286966.399 6
  24077409.767 6 126527647.955 6  98592964.980 5  24077407.288 5  24077408.537 5
  24915488.666 7 130931782.481 7 102024754.667 5  24915486.089 5  24915488.111 5
  22657827.707 8 119067722.661 8  92780045.934 8  22657824.125 8  22657826.938 8
  23853977.890 8 125353552.293 8  97678097.461 6  23853973.166 6  23853976.629 6
  20900225.156 9 109831473.209 9  85582964.870 9  20900219.764 9  20900223.817 9
 09  6 30  0  7  0.0000000  0 10G22G 7G 3G 6G11G32G 8G16G18G19
  21659037.632 9 113819050.305 9  88690159.944 9  21659032.677 9  21659037.014 9
  24281296.678 7 127599087.169 7  99427859.641 6  24281292.124 6  24281296.208 6
  20118667.092 9 105724368.421 9  82382624.892 9  20118664.090 9  20118666.347 9
  20781857.433 9 109209473.208 9  85098302.300 9  20781854.273 9  20781856.578 9
  23271423.444 8 122292157.011 8  95292582.272 6  23271419.067 6  23271422.951 6
  24056133.327 7 126415837.969 7  98505840.365 5  24056130.103 5  24056133.296 5
  24911440.436 7 130910509.356 7 102008178.204 5  24911437.685 5  24911440.465 5
  22676471.295 8 119165692.084 8  92856385.722 8  22676467.439 8  22676469.960 8
  23868024.431 8 125427365.762 8  97735614.468 6  23868019.304 6  23868022.988 6
  20893638.183 9 109796856.859 9  85555991.094 9  20893632.865 9  20893636.709 9
 09  6 30  0  7 30.0000000  0 10G22G 7G 3G 6G11G32G 8G16G18G19
  21664810.239 9 113849384.489 9  88713796.969 9  21664804.917 9  21664809.443 9
  24288982.530 7 127639475.632 7  99459331.155 6  24288977.362 6  24288982.320 6
  20120581.589 9 105734428.708 9  82390464.063 9  20120578.599 9  20120580.823 9
  20786213.911 9 109232366.920 9  85116141.560 9  20786210.878 9  20786213.017 9
  23255913.005 8 122210648.511 8  95229069.175 7  23255908.459 7  23255912.230 7
  24034866.729 7 126304086.496 7  98418761.324 5  24034864.590 5  24034867.249 5
  24907496.850 7 130889783.901 7 101992028.514 5  24907494.104 5  24907496.523 5
  22695161.219 8 119263909.278 8  92932918.589 8  22695157.808 8  22695160.132 8
  23882135.108 8 125501518.819 8  97793396.047 6  23882130.246 6  23882133.962 6
  20887090.383 9 109762448.436 9  85529179.336 9  20887084.981 9  20887089.049 9
 09  6 30  0  8  0.0000000  0 10G22G 7G 3G 6G11G32G 8G16G18G19
  21670683.898 9 113880251.337 9  88737849.058 9  21670678.657 9  21670683.167 9
  24296743.869 7 127680263.264 7  99491113.731 6  24296739.443 6  24296743.602 6
  20122564.474 9 105744848.566 9  82398583.424 9  20122561.543 9  20122563.718 9
  20790625.855 9 109255551.972 9  85134207.828 9  20790622.840 9  20790625.228 9
  23240435.464 8 122129312.045 8  95165690.110 7  23240430.940 7  23240434.331 7
  24013614.256 7 126192396.247 7  98331729.968 5  24013610.195 5  24013613.205 5
  24903656.912 7 130869606.455 7 101976305.812 5  24903654.528 5  24903656.956 5
  22713898.298 8 119362372.086 8  93009642.845 8  22713894.563 8  22713897.265 8
  23896309.761 8 125576009.181 8  97851440.460 6  23896305.782 6  23896308.650 6
  20880582.525 9 109728249.000 9  85502530.423 9  20880577.013 9  20880581.091 9
 09  6 30  0  8 30.0000000  0 10G22G 7G 3G 6G11G32G 8G16G18G19
  21676658.861 9 113911649.719 9  88762315.334 9  21676653.706 9  21676658.116 9
  24304581.118 7 127721447.771 7  99523205.543 6  24304577.026 6  24304580.990 6
  20124615.879 9 105755628.656 9  82406983.482 9  20124613.016 9  20124614.976 9
  20795093.383 9 109279028.707 9  85152501.372 9  20795090.370 9  20795092.424 9
  23224990.322 8 122048147.763 8  95102445.228 7  23224985.998 7  23224988.596 7
  23992371.832 7 126080769.864 7  98244748.311 6  23992369.274 6  23992372.125 6
  24899921.323 7 130849977.079 7 101961010.247 5  24899919.260 5  24899920.502 5
  22732681.330 9 119461078.063 9  93086556.569 8  22732677.442 8  22732680.476 8
  23910548.646 8 125650834.727 8  97909746.076 6  23910544.883 6  23910547.220 6
  20874114.520 9 109694259.715 9  85476045.268 9  20874108.793 9  20874113.172 9
 09  6 30  0  9  0.0000000  0 10G22G 7G 3G 6G11G32G 8G16G18G19
  21682734.626 9 113943578.468 9  88787194.884 9  21682729.377 9  21682733.628 9
  24312493.014 7 127763026.573 7  99555604.585 6  24312489.285 6  24312493.165 6
  20126735.901 9 105766769.307 9  82415664.497 9  20126733.039 9  20126735.023 9
  20799616.503 9 109302797.718 9  85171022.672 9  20799613.488 9  20799615.627 9
  23209578.300 8 121967156.515 8  95039335.197 7  23209574.216 7  23209576.752 7
  23971143.976 7 125969210.064 7  98157818.622 5  23971140.119 5  23971141.796 5
  24896291.344 7 130830896.188 7 101946142.029 5  24896287.736 5  24896289.934 5
  22751510.337 8 119560024.852 8  93163657.933 8  22751505.942 8  22751509.331 8
  23924850.432 8 125725993.479 8  97968311.353 6  23924846.253 6  23924849.490 6
  20867686.784 9 109660481.203 9  85449724.338 9  20867681.018 9  20867685.226 9
 09  6 30  0  9 30.0000000  0 10G22G 7G 3G 6G11G32G 8G16G18G19
  21688911.217 9 113976036.690 9  88812487.012 9  21688906.040 9  21688910.194 9
  24320479.867 7 127804997.430 7  99588309.134 6  24320476.627 6  24320479.138 6
  20128924.754 9 105778271.570 9  82424627.287 9  20128921.802 9  20128923.741 9
  20804195.402 9 109326859.763 9  85189772.317 9  20804192.535 9  20804194.549 9
  23194199.035 8 121886338.189 8  94976359.874 7  23194195.353 7  23194198.090 7
  23949926.875 7 125857719.594 7  98070942.953 5  23949923.878 5  23949926.455 5
  24892764.294 7 130812363.809 7 101931701.223 5  24892760.879 5  24892763.689 5
  22770384.341 8 119659209.982 8  93240945.023 8  22770380.438 8  22770383.583 8
  23939216.156 8 125801483.050 8  98027134.399 6  23939211.351 6  23939214.779 6
  20861299.254 9 109626914.867 9  85423568.746 9  20861293.632 9  20861297.870 9
 09  6 30  0 10  0.0000000  0 10G22G 7G 3G 6G11G32G 8G16G18G19
  21695188.238 9 114009023.002 9  88838190.638 9  21695183.103 9  21695187.406 9
  24328540.349 7 127847357.687 7  99621317.141 6  24328538.755 6  24328539.975 6
  20131182.408 9 105790135.884 9  82433872.198 9  20131179.524 9  20131181.407 9
  20808830.049 9 109351215.281 9  85208750.631 9  20808827.137 9  20808829.209 9
  23178852.558 8 121805693.620 8  94913519.990 7  23178849.895 7  23178852.273 7
  23928724.915 7 125746301.177 7  97984123.398 6  23928721.682 6  23928724.106 6
  24889341.741 7 130794380.056 7 101917687.905 5  24889339.760 5  24889341.292 5
  22789303.923 8 119758631.329 8  93318416.175 8  22789299.816 8  22789302.602 8
  23953643.882 8 125877301.282 8  98086213.546 6  23953639.263 6  23953642.530 6
  20854952.358 9 109593561.556 9  85397579.143 9  20854946.711 9  20854951.026 9
 09  6 30  0 10 30.0000000  0 10G22G 7G 3G 6G11G32G 8G16G18G19
  21701565.614 9 114042536.171 9  88864304.806 9  21701560.514 9  21701565.018 9
  24336675.089 7 127890105.106 7  99654626.817 6  24336672.324 6  24336675.468 6
  20133509.178 9 105802362.570 9  82443399.481 9  20133506.195 9  20133508.142 9
  20813520.586 9 109375864.792 9  85227958.035 9  20813517.732 9  20813519.835 9
  23163539.235 8 121725223.059 8  94850815.698 7  23163536.720 7  23163539.135 7
  23907537.637 7 125634957.553 7  97897362.175 5  23907534.569 5  23907536.238 5
  24886023.896 7 130776944.691 7 101904101.915 5  24886021.832 5  24886022.998 5
  22808267.668 8 119858286.378 8  93396069.436 8  22808263.404 8  22808266.587 8
  23968133.789 8 125953445.703 8  98145546.856 6  23968129.303 6  23968132.484 6
  20848646.200 9 109560421.857 9  85371755.997 9  20848640.552 9  20848644.812 9
 09  6 30  0 11  0.0000000  0 10G22G 7G 3G 6G11G32G 8G16G18G19
  21708043.226 9 114076575.045 9  88890828.606 9  21708037.346 9  21708042.470 9
  24344883.446 7 127933237.111 7  99688236.148 6  24344879.624 6  24344883.061 6
  20135904.806 9 105814952.443 9  82453209.771 9  20135901.957 9  20135903.988 9
  20818267.345 9 109400808.894 9  85247394.990 9  20818264.423 9  20818266.530 9
  23148260.406 8 121644926.955 8  94788247.332 7  23148256.604 7  23148259.441 7
  23886363.708 7 125523691.426 7  97810661.280 5  23886361.065 5  23886363.196 5
  24882809.947 7 130760058.266 7 101890943.677 5  24882808.324 5  24882810.301 5
  22827275.174 8 119958172.776 8  93473902.953 8  22827271.367 8  22827274.597 8
  23982685.339 8 126029914.591 8  98205133.007 6  23982680.831 6  23982684.030 6
  20842380.646 9 109527497.161 9  85346100.387 9  20842375.064 9  20842379.318 9
 09  6 30  0 11 30.0000000  0 10G22G 7G 3G 6G11G32G 8G16G18G19
  21714620.349 9 114111138.427 9  88917761.124 9  21714614.984 9  21714619.656 9
  24353162.969 7 127976751.353 7  99722143.375 6  24353160.647 6  24353163.688 6
  20138369.796 9 105827905.760 9  82463303.264 9  20138366.566 9  20138368.869 9
  20823070.387 9 109426048.159 9  85267061.946 9  20823067.554 9  20823069.350 9
  23133013.460 8 121564805.667 8  94725815.156 7  23133009.379 7  23133013.342 7
  23865206.141 7 125412505.488 7  97724022.870 5  23865203.288 5  23865205.211 5
  24879701.181 7 130743720.546 7 101878213.047 5  24879699.665 5  24879701.850 5
  22846326.774 8 120058288.151 8  93551914.904 8  22846322.681 8  22846325.697 8
  23997297.724 8 126106705.735 8  98264970.265 6  23997293.755 6  23997297.160 6
  20836156.331 9 109494788.409 9  85320613.050 9  20836151.054 9  20836154.964 9
 09  6 30  0 12  0.0000000  0 10G22G 7G 3G 6G11G32G 8G16G18G19
  21721297.145 9 114146225.091 9  88945101.391 9  21721291.468 9  21721296.378 9
  24361516.767 7 128020645.149 7  99756346.328 6  24361512.860 6  24361516.418 6
  20140903.915 9 105841223.270 9  82473680.544 9  20140901.016 9  20140903.202 9
  20827929.458 9 109451583.039 9  85286959.256 9  20827926.309 9  20827928.452 9
  23117800.417 8 121484859.750 8  94663519.630 7  23117796.441 7  23117800.044 7
  23844063.853 7 125301402.574 7  97637449.138 6  23844061.190 6  23844062.067 6
  24876697.416 7 130727931.675 7 101865910.014 5  24876694.714 5  24876698.180 5
  22865421.301 8 120158629.723 8  93630103.104 8  22865417.425 8  22865420.004 8
  24011971.716 8 126183816.918 8  98325056.942 6  24011967.540 6  24011970.990 6
  20829973.342 9 109462296.361 9  85295294.578 9  20829967.855 9  20829971.933 9
 09  6 30  0 12 30.0000000  0 10G22G 7G 3G 6G11G32G 8G16G18G19
  21728073.094 9 114181833.558 9  88972848.259 9  21728067.863 9  21728072.489 9
  24369940.614 7 128064915.835 7  99790842.936 6  24369937.837 6  24369940.254 6
  20143507.738 9 105854905.482 9  82484342.003 9  20143504.730 9  20143506.723 9
  20832845.036 9 109477414.024 9  85307087.294 9  20832841.943 9  20832844.181 9
  23102620.892 8 121405089.581 8  94601361.058 7  23102616.399 7  23102620.462 7
  23822937.587 7 125190385.354 7  97550942.207 6  23822935.365 6  23822936.434 6
  24873796.489 7 130712691.833 7 101854034.796 5  24873795.221 5  24873797.746 5
  22884558.121 8 120259195.869 8  93708466.300 8  22884554.394 8  22884557.109 8
  24026706.104 8 126261245.758 8  98385391.111 6  24026701.541 6  24026705.478 6
  20823831.839 9 109430022.323 9  85270145.989 9  20823826.260 9  20823830.500 9
 09  6 30  0 13  0.0000000  0 10G22G 7G 3G 6G11G32G 8G16G18G19
  21734948.067 9 114217962.399 9  89001000.610 9  21734943.259 9  21734947.611 9
  24378436.473 7 128109561.111 7  99825631.431 6  24378432.397 6  24378435.934 6
  20146180.760 9 105868952.540 9  82495287.759 9  20146177.995 9  20146179.716 9
  20837816.830 9 109503541.837 9  85327446.624 9  20837813.952 9  20837816.029 9
  23087474.455 8 121325495.410 8  94539339.644 7  23087470.077 7  23087473.564 7
  23801828.549 7 125079456.589 7  97464504.166 6  23801825.831 6  23801827.028 6
  24871001.106 7 130698000.552 7 101842587.073 5  24870999.837 5  24871001.084 5
  22903737.529 8 120359983.788 8  93787002.306 8  22903733.612 8  22903736.368 8
  24041500.231 8 126338990.153 8  98445971.148 6  24041495.609 6  24041499.836 6
  20817732.056 9 109397967.023 9  85245167.842 9  20817726.452 9  20817730.621 9
 09  6 30  0 13 30.0000000  0 10G22G 7G 3G 6G11G32G 8G16G18G19
  21741922.338 9 114254610.567 9  89029557.624 9  21741916.791 9  21741921.324 9
  24387002.895 7 128154578.488 7  99860709.932 6  24386999.034 6  24387001.783 6
  20148923.415 9 105883365.259 9  82506518.448 9  20148920.501 9  20148922.411 9
  20842845.434 9 109529966.670 9  85348037.390 9  20842842.444 9  20842844.452 9
  23072361.510 8 121246077.917 8  94477455.885 7  23072357.443 7  23072360.824 7
  23780737.533 7 124968619.054 7  97378137.252 6  23780734.535 6  23780735.782 6
  24868310.687 7 130683857.795 7 101831566.732 5  24868308.204 5  24868309.037 5
  22922958.471 8 120460990.948 8  93865709.143 7  22922954.901 7  22922957.619 7
  24056354.228 8 126417047.713 8  98506795.235 6  24056349.647 6  24056353.489 6
  20811673.816 9 109366131.641 9  85220361.057 9  20811668.221 9  20811672.800 9
 09  6 30  0 14  0.0000000  0 10G22G 7G 3G 6G11G32G 8G16G18G19
  21748994.543 9 114291777.051 9  89058518.527 9  21748989.472 9  21748994.168 9
  24395640.109 7 128199965.319 7  99896076.305 6  24395635.987 6  24395638.145 6
  20151735.718 9 105898143.917 9  82518034.281 9  20151732.738 9  20151734.807 9
  20847930.622 9 109556689.423 9  85368860.298 9  20847927.635 9  20847929.675 9
  23057282.749 8 121166837.072 8  94415709.780 7  23057278.010 7  23057281.759 7
  23759663.230 7 124857875.446 7  97291843.507 6  23759661.185 6  23759662.368 6
  24865722.700 7 130670263.722 7 101820973.977 5  24865721.025 5  24865721.419 5
  22942220.926 8 120562215.316 8  93944585.247 7  22942217.245 7  22942220.216 7
  24071266.878 8 126495416.338 8  98567861.698 6  24071262.686 6  24071267.294 6
  20805657.792 9 109334517.005 9  85195726.276 9  20805652.231 9  20805656.457 9
 09  6 30  0 14 30.0000000  0 10G22G 7G 3G 6G11G32G 8G16G18G19
  21756165.590 9 114329460.253 9  89087882.060 9  21756160.150 9  21756164.743 9
  24404345.245 7 128245719.213 7  99931728.704 6  24404342.888 6  24404344.827 6
  20154617.828 9 105913289.176 9  82529835.780 9  20154614.772 9  20154616.943 9
  20853072.553 9 109583710.366 9  85389915.560 9  20853069.547 9  20853071.491 9
  23042237.816 8 121087773.536 8  94354101.833 7  23042232.743 7  23042236.637 7
  23738608.088 7 124747228.518 7  97205625.111 6  23738605.678 6  23738606.724 6
  24863240.045 7 130657218.299 7 101810808.699 5  24863238.763 5  24863239.345 5
  22961524.206 8 120663654.223 8  94023628.559 7  22961520.361 7  22961523.610 7
  24086239.104 8 126574093.815 8  98629168.841 6  24086234.600 6  24086238.340 6
  20799684.056 9 109303124.437 9  85171264.520 9  20799678.174 9  20799682.457 9
 09  6 30  0 15  0.0000000  0 10G22G 7G 3G 6G11G32G 8G16G18G19
  21763434.357 9 114367658.816 9  89117647.177 9  21763429.076 9  21763433.541 9
  24413122.001 7 128291837.383 7  99967664.930 6  24413118.562 6  24413121.573 6
  20157569.607 9 105928801.570 9  82541923.359 9  20157566.732 9  20157568.906 9
  20858271.276 9 109611030.260 9  85411203.783 9  20858268.435 9  20858270.322 9
  23027226.223 8 121008887.859 8  94292632.462 7  23027221.556 7  23027225.122 7
  23717571.427 7 124636680.973 7  97119484.148 6  23717569.166 6  23717570.287 6
  24860862.834 7 130644721.245 7 101801070.730 5  24860859.541 5  24860861.171 5
  22980867.979 8 120765305.490 8  94102837.347 7  22980863.416 7  22980867.210 7
  24101269.238 7 126653077.926 7  98690714.902 6  24101263.900 6  24101268.046 6
  20793752.447 9 109271954.589 9  85146976.313 9  20793746.707 9  20793751.012 9
 09  6 30  0 15 30.0000000  0 10G22G 7G 3G 6G11G32G 8G16G18G19
  21770801.065 9 114406371.527 9  89147812.934 9  21770795.816 9  21770800.219 9
  24421967.252 7 128338317.498 7 100003883.176 6  24421963.462 6  24421967.188 6
  20160591.654 9 105944681.426 9  82554297.268 9  20160588.365 9  20160590.530 9
  20863526.888 9 109638649.300 9  85432725.106 9  20863524.167 9  20863526.107 9
  23012248.502 8 120930180.115 8  94231301.766 7  23012244.844 7  23012247.594 7
  23696554.289 7 124526235.606 7  97033422.827 6  23696552.423 6  23696553.252 6
  24858588.273 7 130632772.290 7 101791759.882 5  24858585.528 5  24858588.000 5
  23000251.454 8 120867166.660 8  94182209.702 7  23000246.759 7  23000250.326 7
  24116357.416 7 126732366.351 7  98752498.104 6  24116352.080 6  24116355.854 6
  20787863.655 9 109241008.416 9  85122862.407 9  20787858.073 9  20787862.201 9
 09  6 30  0 16  0.0000000  0 10G22G 7G 3G 6G11G32G 8G16G18G19
  21778265.482 9 114445596.837 9  89178378.116 9  21778259.988 9  21778264.679 9
  24430881.348 7 128385156.599 7 100040381.191 6  24430876.833 6  24430879.957 6
  20163683.389 9 105960929.004 9  82566957.714 9  20163680.451 9  20163682.313 9
  20868839.783 9 109666568.176 9  85454480.067 9  20868836.839 9  20868839.083 9
  22997304.593 8 120851650.850 8  94170110.165 7  22997301.439 7  22997304.276 7
  23675557.300 7 124415895.088 7  96947443.197 6  23675554.740 6  23675555.272 6
  24856419.528 7 130621371.429 7 101782876.095 5  24856416.788 5  24856418.891 5
  23019674.155 8 120969235.103 8  94261743.558 7  23019669.986 7  23019673.028 7
  24131502.823 7 126811957.014 7  98814516.807 6  24131497.034 6  24131502.195 6
  20782017.593 9 109210287.268 9  85098923.851 9  20782012.066 9  20782016.232 9
 09  6 30  0 16 30.0000000  0 10G22G 7G 3G 6G11G32G 8G16G18G19
  21785826.765 9 114485332.872 9  89209341.263 9  21785821.843 9  21785826.032 9
  24439862.085 7 128432352.167 7 100077156.965 6  24439857.805 6  24439861.304 6
  20166845.249 9 105977545.049 9  82579905.282 9  20166842.484 9  20166844.353 9
  20874209.823 9 109694787.405 9  85476469.078 9  20874206.836 9  20874208.827 9
  22982395.131 8 120773300.252 8  94109057.751 7  22982391.626 7  22982394.941 7
  23654580.532 7 124305662.209 7  96861547.448 6  23654578.270 6  23654578.668 6
  24854353.597 7 130610518.319 7 101774419.129 5  24854352.420 5  24854352.898 5
  23039136.207 8 121071508.675 8  94341437.244 7  23039132.400 7  23039134.788 7
  24146705.959 8 126891847.805 8  98876769.412 5  24146700.792 5  24146704.104 5
  20776214.708 9 109179792.246 9  85075161.504 9  20776208.995 9  20776213.280 9
 09  6 30  0 17  0.0000000  0 10G22G 7G 3G 6G11G32G 8G16G18G19
  21793485.491 9 114525578.852 9  89240701.771 9  21793480.172 9  21793484.647 9
  24448909.831 7 128479901.759 7 100114208.587 6  24448906.169 6  24448909.414 6
  20170077.454 9 105994530.097 9  82593140.385 9  20170074.385 9  20170076.428 9
  20879636.788 9 109723307.399 9  85498692.457 9  20879633.820 9  20879635.995 9
  22967519.073 8 120695129.036 8  94048145.121 7  22967516.060 7  22967519.327 7
  23633625.275 7 124195539.758 7  96775737.758 6  23633622.430 6  23633622.597 6
  24852392.366 7 130600212.504 7 101766388.654 5  24852391.483 5  24852391.092 5
  23058636.776 8 121173984.858 8  94421288.815 7  23058633.677 7  23058635.618 7
  24161964.957 7 126972036.337 7  98939253.986 6  24161960.283 6  24161964.011 6
  20770454.750 9 109149524.168 9  85051575.990 9  20770448.991 9  20770453.471 9
 09  6 30  0 17 30.0000000  0 11G22G 7G 3G 6G11G32G 8G16G14G18G19
  21801240.760 9 114566333.092 9  89272458.329 9  21801235.573 9  21801239.919 9
  24458025.285 7 128527802.743 7 100151534.024 6  24458021.026 6  24458024.433 6
  20173379.783 9 106011884.503 9  82606663.297 9  20173376.947 9  20173378.880 9
  20885121.258 9 109752128.728 9  85521150.640 9  20885118.237 9  20885120.369 9
  22952678.054 8 120617137.464 8  93987372.477 7  22952674.442 7  22952677.512 7
  23612690.128 7 124085530.419 7  96690016.203 6  23612688.320 6  23612688.884 6
  24850535.413 7 130590453.735 7 101758784.444 5  24850534.765 5  24850534.300 5
  23078175.150 8 121276660.917 8  94501296.110 7  23078172.112 7  23078174.121 7
  25118272.831 6
  24177280.469 7 127052520.156 7  99001968.674 6  24177276.604 6  24177279.786 6
  20764738.548 9 109119483.770 9  85028167.882 9  20764732.818 9  20764736.919 9
 09  6 30  0 18  0.0000000  0 11G22G 7G 3G 6G11G32G 8G16G14G18G19
  21809092.470 9 114607594.133 9  89304609.799 9  21809087.221 9  21809091.650 9
  24467206.057 7 128576052.607 7 100189131.331 5  24467203.977 5  24467205.885 5
  20176752.712 9 106029608.638 9  82620474.316 9  20176749.663 9  20176751.555 9
  20890663.297 9 109781251.690 9  85543843.854 9  20890660.444 9  20890662.306 9
  22937871.104 8 120539325.797 8  93926740.020 7  22937866.987 7  22937870.383 7
  23591779.169 7 123975636.997 7  96604384.921 6  23591776.527 6  23591777.216 6
  24848783.082 7 130581241.784 7 101751606.319 5  24848781.865 5  24848780.374 5
  23097751.153 8 121379534.412 8  94581457.257 7  23097747.970 7  23097750.634 7
  25104731.716 6 131926256.04716
  24192651.265 7 127133297.307 7  99064911.896 5  24192647.757 5  24192651.021 5
  20759065.583 9 109089672.461 9  85004938.285 9  20759059.813 9  20759064.196 9
 09  6 30  0 18 30.0000000  0 11G22G 7G 3G 6G11G32G 8G16G14G18G19
  21817040.269 9 114649360.618 9  89337155.116 9  21817035.348 9  21817039.333 9
  24476454.120 7 128624648.443 7 100226998.213 6  24476451.364 6  24476452.835 6
  20180195.796 9 106047703.010 9  82634573.825 9  20180192.825 9  20180194.893 9
  20896262.756 9 109810676.924 9  85566772.602 9  20896259.633 9  20896261.766 9
  22923098.635 8 120461694.494 8  93866248.094 7  22923094.332 7  22923097.743 7
  23570889.570 7 123865862.159 7  96518846.065 6  23570887.350 6  23570888.255 6
  24847134.198 7 130572576.658 7 101744854.255 5  24847132.296 5  24847132.010 5
  23117364.601 8 121482603.585 8  94661770.912 7  23117361.473 7  23117363.761 7
  25091209.340 6 131855192.356 6
  24208079.081 7 127214365.054 7  99128081.555 5  24208074.208 5  24208077.270 5
  20753436.371 9 109060091.220 9  84981887.962 9  20753430.772 9  20753435.179 9
 09  6 30  0 19  0.0000000  0 11G22G 7G 3G 6G11G32G 8G16G14G18G19
  21825083.937 9 114691631.008 9  89370093.089 9  21825079.291 9  21825083.399 9
  24485766.797 7 128673587.346 7 100265132.434 6  24485764.114 6  24485766.255 6
  20183709.663 9 106066168.126 9  82648962.225 9  20183706.555 9  20183708.627 9
  20901919.895 9 109840404.885 9  85589937.242 9  20901917.018 9  20901918.951 9
  22908359.857 8 120384243.948 8  93805897.015 7  22908355.828 7  22908359.527 7
  23550023.637 7 123756208.695 7  96433401.828 6  23550020.501 6  23550021.619 6
  24845588.282 6 130564457.809 6 101738527.889 5  24845586.622 5  24845586.902 5
  23137015.161 8 121585865.584 8  94742234.809 7  23137011.393 7  23137014.282 7
  25077704.569 6 131784226.727 6
  24223560.593 7 127295721.492 7  99191476.226 5  24223556.645 5  24223558.505 5
  20747851.163 9 109030741.043 9  84959017.685 9  20747845.699 9  20747849.836 9
 09  6 30  0 19 30.0000000  0 11G22G 7G 3G 6G11G32G 8G16G14G18G19
  21833223.611 9 114734403.606 9  89403422.393 9  21833218.432 9  21833222.804 9
  24495145.246 7 128722867.104 7 100303532.262 6  24495141.880 6  24495144.279 6
  20187294.136 9 106085004.373 9  82663639.811 9  20187291.001 9  20187293.150 9
  20907634.642 9 109870436.035 9  85613338.134 9  20907631.698 9  20907633.767 9
  22893656.293 8 120306974.392 8  93745686.950 7  22893651.575 7  22893655.403 7
  23529180.242 7 123646679.369 7  96348054.264 6  23529176.941 6  23529179.050 6
  24844148.869 7 130556885.123 7 101732627.100 5  24844145.316 5  24844146.037 5
  23156701.399 8 121689317.729 8  94822846.879 7  23156697.718 7  23156700.547 7
  25064218.905 6 131713361.855 6
  24239096.481 8 127377364.262 8  99255093.982 6  24239092.789 6  24239094.254 6
  20742310.298 9 109001623.013 9  84936328.298 9  20742304.558 9  20742309.029 9
 09  6 30  0 20  0.0000000  0 11G22G 7G 3G 6G11G32G 8G16G14G18G19
  21841458.177 9 114777676.993 9  89437141.921 9  21841452.938 9  21841457.366 9
  24504586.780 7 128772484.835 7 100342195.439 6  24504583.620 6  24504586.814 6
  20190949.252 9 106104211.863 9  82678606.679 9  20190946.388 9  20190948.148 9
  20913407.261 9 109900770.746 9  85636975.562 9  20913404.247 9  20913406.272 9
  22878986.642 8 120229886.258 8  93685618.259 7  22878982.619 7  22878985.978 7
  23508361.670 8 123537276.820 8  96262805.453 6  23508357.978 6  23508360.438 6
  24842810.564 7 130549857.915 7 101727151.303 5  24842807.978 5  24842809.587 5
  23176423.256 8 121792957.924 8  94903605.482 7  23176420.000 7  23176422.543 7
  25050753.200 6 131642600.768 6
  24254686.668 8 127459291.268 8  99318933.191 6  24254682.776 6  24254685.319 6
  20736813.600 9 108972738.116 9  84913820.575 9  20736807.815 9  20736812.209 9
 09  6 30  0 20 30.0000000  0 11G22G 7G 3G 6G11G32G 8G16G14G18G19
  21849787.973 9 114821449.733 9  89471250.554 9  21849782.549 9  21849787.236 9
  24514092.440 7 128822437.945 7 100381119.941 6  24514090.327 6  24514092.276 6
  20194674.908 9 106123791.096 9  82693863.222 9  20194672.137 9  20194673.969 9
  20919237.415 9 109931409.588 9  85660849.972 9  20919234.510 9  20919236.706 9
  22864351.943 8 120152980.047 8  93625691.346 7  22864348.079 7  22864351.101 7
  23487567.839 7 123428003.928 7  96177657.711 6  23487564.614 6  23487566.425 6
  24841577.110 7 130543375.759 7 101722100.302 5  24841575.125 5  24841576.796 5
  23196180.800 8 121896783.472 8  94984508.517 7  23196177.299 7  23196179.687 7
  25037308.189 6 131571946.494 6
  24270330.616 8 127541500.144 8  99382992.058 6  24270326.582 6  24270329.472 6
  20731361.614 9 108944087.540 9  84891495.445 9  20731355.896 9  20731360.085 9
 09  6 30  0 21  0.0000000  0 11G22G 7G 3G 6G11G32G 8G16G14G18G19
  21858212.393 9 114865720.141 9  89505746.984 9  21858206.733 9  21858211.719 9
  24523661.570 7 128872723.686 7 100420303.601 6  24523658.412 6  24523661.208 6
  20198471.584 9 106143742.793 9  82709409.994 9  20198468.644 9  20198470.696 9
  20925125.779 9 109962352.993 9  85684961.710 9  20925122.827 9  20925124.903 9
  22849751.842 8 120076255.873 8  93565906.287 7  22849748.484 7  22849751.087 7
  23466799.149 8 123318863.404 8  96092613.134 6  23466796.342 6  23466797.823 6
  24840446.678 7 130537438.231 7 101717473.614 5  24840444.889 5  24840446.053 5
  23215972.566 8 122000792.240 8  95065554.303 7  23215969.125 7  23215971.978 7
  25023885.030 6 131501402.181 6
  24286027.449 8 127623988.594 8  99447268.727 6  24286023.841 6  24286026.764 6
  20725954.148 9 108915672.158 9  84869353.590 9  20725948.827 9  20725952.928 9
 09  6 30  0 21 30.0000000  0 11G22G 7G 3G 6G11G32G 8G16G14G18G19
  21866731.122 9 114910486.482 9  89540629.855 9  21866725.685 9  21866730.529 9
  24533293.202 7 128923339.316 7 100459744.361 6  24533290.252 6  24533293.196 6
  20202339.172 9 106164067.260 9  82725247.240 9  20202336.356 9  20202338.175 9
  20931072.199 9 109993601.469 9  85709311.162 9  20931069.347 9  20931071.126 9
  22835186.526 8 119999714.382 8  93506263.587 7  22835183.079 7  22835185.546 7
  23446056.416 8 123209858.022 8  96007673.864 6  23446053.228 6  23446055.118 6
  24839419.931 7 130532044.911 7 101713271.012 5  24839418.554 5  24839418.591 5
  23235799.787 8 122104981.769 8  95146740.945 7  23235795.852 7  23235798.650 7
  25010482.410 7 131430970.891 7
  24301777.280 8 127706754.538 8  99511761.703 6  24301773.996 6  24301775.954 6
  20720591.836 9 108887493.107 9  84847395.890 9  20720586.301 9  20720590.624 9
 09  6 30  0 22  0.0000000  0 11G22G 7G 3G 6G11G32G 8G16G14G18G19
  21875343.975 9 114955747.318 9  89575898.050 9  21875338.524 9  21875343.482 9
  24542986.260 7 128974282.291 7 100499440.189 6  24542984.450 6  24542987.874 6
  20206277.892 9 106184764.825 9  82741375.215 9  20206274.932 9  20206276.951 9
  20937076.619 9 110025155.181 9  85733898.463 9  20937073.560 9  20937075.680 9
  22820655.999 8 119923355.848 8  93446763.451 8  22820652.674 8  22820654.741 8
  23425339.547 8 123100990.505 8  95922841.997 6  23425336.355 6  23425337.641 6
  24838497.305 7 130527195.349 7 101709492.167 6  24838495.834 6  24838496.387 6
  23255659.845 8 122209349.352 8  95228066.359 7  23255656.391 7  23255659.013 7
  24997102.634 7 131360655.543 7
  24317579.531 7 127789795.394 7  99576468.945 6  24317576.095 6  24317578.304 6
  20715274.704 9 108859551.491 9  84825623.198 9  20715269.278 9  20715273.501 9
 09  6 30  0 22 30.0000000  0 11G22G 7G 3G 6G11G32G 8G16G14G18G19
  21884050.644 9 115001501.178 9  89611550.416 9  21884045.013 9  21884050.004 9
  24552744.259 7 129025549.696 7 100539388.817 6  24552740.153 6  24552743.224 6
  20210287.557 9 106205835.846 9  82757794.184 9  20210284.671 9  20210286.630 9
  20943139.361 9 110057014.818 9  85758724.140 9  20943136.394 9  20943138.632 9
  22806160.455 8 119847180.360 8  93387405.927 7  22806156.707 7  22806159.159 7
  23404649.146 7 122992263.600 7  95838119.730 6  23404647.180 6  23404648.558 6
  24837678.646 7 130522888.642 7 101706136.332 6  24837676.807 6  24837676.415 6
  23275554.193 8 122313892.682 8  95309528.708 7  23275549.814 7  23275553.030 7
  24983744.040 7 131290459.415 7 102304236.06415  24983739.998 5  24983744.786 5
  24333433.025 7 127873109.006 7  99641388.607 5  24333429.585 5  24333431.863 5
  20710003.372 9 108831848.423 9  84804036.384 9  20709997.706 9  20710001.722 9
 09  6 30  0 23  0.0000000  0 11G22G 7G 3G 6G11G32G 8G16G14G18G19
  21892850.717 9 115047746.387 9  89647585.655 9  21892845.465 9  21892850.205 9
  24562559.442 7 129077138.753 7 100579588.092 6  24562556.720 6  24562559.465 6
  20214368.440 9 106227280.447 9  82774504.255 9  20214365.283 9  20214367.416 9
  20949260.424 9 110089180.688 9  85783788.445 9  20949257.427 9  20949259.617 9
  22791699.473 8 119771188.619 8  93328191.567 7  22791695.219 7  22791698.468 7
  23383986.860 7 122883680.112 7  95753509.221 6  23383983.702 6  23383985.320 6
  24836961.510 7 130519124.632 7 101703203.390 5  24836959.846 5  24836959.759 5
  23295480.667 8 122418608.959 8  95391125.807 7  23295476.482 7  23295479.952 7
  24970409.994 7 131220385.316 7 102249632.873 6  24970405.496 6  24970408.318 6
  24349338.552 7 127956693.157 7  99706519.113 6  24349335.306 6  24349337.258 6
  20704777.174 9 108804384.764 9  84782636.130 9  20704771.683 9  20704775.694 9
 09  6 30  0 23 30.0000000  0 11G22G 7G 3G 6G11G32G 8G16G14G18G19
  21901743.925 9 115094481.030 9  89684002.272 9  21901738.695 9  21901743.349 9
  24572438.155 7 129129046.750 7 100620035.877 6  24572434.988 6  24572437.605 6
  20218520.428 9 106249099.349 9  82791505.992 9  20218517.399 9  20218519.509 9
  20955439.695 9 110121653.364 9  85809091.817 9  20955436.953 9  20955438.803 9
  22777274.026 8 119695380.682 8  93269120.441 7  22777269.407 7  22777272.863 7
  23363351.285 8 122775242.707 8  95669012.577 6  23363349.008 6  23363350.436 6
  24836348.374 7 130515902.776 7 101700692.839 5  24836345.640 5  24836346.806 5
  23315440.307 8 122523496.125 8  95472856.069 7  23315436.236 7  23315439.587 7
  24957098.326 7 131150436.337 7 102195127.177 5  24957096.202 5  24957098.331 5
  24365295.541 7 128040545.448 7  99771858.586 6  24365291.833 6  24365293.042 6
  20699596.706 9 108777161.673 9  84761423.330 9  20699591.143 9  20699595.199 9
 09  6 30  0 24  0.0000000  0 11G22G 7G 3G 6G11G32G 8G16G14G18G19
  21910730.062 9 115141703.532 9  89720799.032 9  21910724.815 9  21910729.574 9
  24582375.804 7 129181270.936 7 100660730.029 6  24582372.558 6  24582375.575 6
  20222743.785 9 106271292.839 9  82808799.615 9  20222740.758 9  20222742.571 9
  20961677.481 9 110154433.101 9  85834634.462 9  20961674.677 9  20961676.630 9
  22762883.150 9 119619757.191 9  93210193.057 7  22762878.564 7  22762882.924 7
  23342744.872 8 122666954.129 8  95584631.886 6  23342742.088 6  23342743.794 6
  24835838.168 7 130513222.283 7 101698604.115 5  24835834.994 5  24835837.807 5
  23335431.512 8 122628551.564 8  95554717.449 7  23335427.904 7  23335430.736 7
  24943811.249 7 131080615.421 7 102140721.231 5  24943808.001 5  24943809.404 5
  24381302.232 7 128124663.613 7  99837405.234 6  24381298.471 6  24381300.548 6
  20694462.345 9 108750180.421 9  84740398.972 9  20694456.627 9  20694460.959 9
 09  6 30  0 24 30.0000000  0 11G22G 7G 3G 6G11G32G 8G16G14G18G19
  21919808.843 9 115189412.448 9  89757974.815 9  21919803.055 9  21919807.956 9
  24592373.434 7 129233808.994 7 100701668.792 5  24592369.534 5  24592373.621 5
  20227038.360 9 106293860.970 9  82826385.168 9  20227035.438 9  20227037.308 9
  20967973.888 9 110187520.410 9  85860416.769 9  20967970.796 9  20967972.832 9
  22748527.244 8 119544318.141 8  93151409.400 7  22748523.016 7  22748527.199 7
  23322167.476 7 122558817.135 7  95500369.315 6  23322164.366 6  23322165.630 6
  24835431.677 7 130511082.633 7 101696936.870 4  24835427.358 4  24835431.380 4
  23355454.503 8 122733772.970 8  95636708.150 7  23355450.825 7  23355453.734 7
  24930550.410 7 131010925.708 7 102086417.545 6  24930547.547 6  24930549.590 6
  24397359.110 7 128209045.479 7  99903157.338 6  24397355.501 6  24397358.435 6
  20689374.268 9 108723441.800 9  84719563.677 9  20689368.319 9  20689372.823 9
 09  6 30  0 25  0.0000000  0 11G22G 7G 3G 6G11G32G 8G16G14G18G19
  21928979.636 9 115237605.953 9  89795528.194 9  21928974.105 9  21928978.771 9
  24602430.712 7 129286657.458 7 100742849.396 6  24602425.829 6  24602429.835 6
  20231404.261 9 106316804.435 9  82844263.189 9  20231401.328 9  20231403.189 9
  20974328.685 9 110220915.583 9  85886438.977 9  20974325.848 9  20974327.930 9
  22734206.512 8 119469063.981 8  93092769.806 7  22734202.787 7  22734206.173 7
  23301618.511 8 122450834.435 8  95416226.980 7  23301615.934 7  23301617.028 7
  24835127.004 7 130509483.044 7 101695690.484 5  24835123.791 5  24835127.451 5
  23375508.964 8 122839157.820 8  95718826.195 7  23375505.224 7  23375508.115 7
  24917314.070 7 130941370.216 7 102032218.433 5  24917311.077 5  24917313.484 5
  24413466.959 7 128293688.840 7  99969113.212 6  24413461.684 6  24413466.300 6
  20684332.244 9 108696946.848 9  84698918.257 9  20684326.609 9  20684331.041 9
 09  6 30  0 25 30.0000000  0 11G22G 7G 3G 6G11G32G 8G16G14G18G19
  21938242.467 9 115286282.260 9  89833457.788 9  21938236.775 9  21938241.707 9
  24612545.386 7 129339813.595 7 100784269.768 5  24612541.219 5  24612544.703 5
  20235841.711 9 106340123.511 9  82862433.896 9  20235838.686 9  20235840.796 9
  20980742.310 9 110254619.136 9  85912701.477 9  20980739.301 9  20980741.293 9
  22719922.059 8 119393995.108 8  93034274.564 8  22719917.848 8  22719920.965 8
  23281100.168 8 122343008.898 8  95332207.095 7  23281097.222 7  23281098.618 7
  24834925.812 7 130508422.848 7 101694864.320 4  24834922.643 4  24834924.725 4
  23395593.240 8 122944703.046 8  95801069.190 7  23395589.265 7  23395592.685 7
  24904104.760 7 130871952.033 7 101978126.331 5  24904101.093 5  24904103.233 5
  24429623.239 7 128378591.114 7 100035270.822 5  24429618.360 5  24429623.289 5
  20679337.033 9 108670696.628 9  84678463.540 9  20679331.451 9  20679335.585 9
 09  6 30  0 26  0.0000000  0 11G22G 7G 3G 6G11G32G 8G16G14G18G19
  21947596.815 9 115335439.648 9  89871762.252 9  21947591.633 9  21947595.925 9
  24622719.367 7 129393274.939 7 100825927.982 5  24622714.906 5  24622718.687 5
  20240350.767 9 106363818.227 9  82880897.309 9  20240347.556 9  20240349.793 9
  20987214.421 9 110288631.364 9  85939204.508 9  20987211.675 9  20987213.661 9
  22705672.198 8 119319112.038 8  92975924.140 8  22705668.455 8  22705671.166 8
  23260611.478 8 122235343.115 8  95248311.689 7  23260609.529 7  23260610.379 7
  24834826.172 7 130507901.601 7 101694458.132 5  24834823.369 5  24834824.973 5
  23415707.753 8 123050407.230 8  95883436.037 7  23415704.008 7  23415707.301 7
  24890920.549 7 130802674.015 7 101924143.474 4  24890917.683 4  24890920.823 4
  24445828.487 7 128463750.007 7 100101628.384 5  24445823.669 5  24445828.029 5
  20674388.386 9 108644692.481 9  84658200.568 9  20674382.932 9  20674387.073 9
 09  6 30  0 26 30.0000000  0 11G22G 7G 3G 6G11G32G 8G16G14G18G19
  21957042.581 9 115385076.425 9  89910440.266 9  21957037.055 9  21957041.860 9
  24632950.589 7 129447038.420 7 100867821.619 5  24632946.079 5  24632949.954 5
  20244931.275 9 106387889.369 9  82899654.040 9  20244928.264 9  20244930.292 9
  20993745.726 9 110322952.731 9  85965948.424 9  20993742.964 9  20993744.969 9
  22691457.410 8 119244415.042 8  92917718.706 8  22691454.954 8  22691456.826 8
  23240154.708 8 122127839.899 8  95164543.010 7  23240152.852 7  23240152.970 7
  24834829.639 7 130507918.128 7 101694471.072 5  24834827.100 5  24834827.961 5
  23435852.256 8 123156267.400 8  95965924.451 7  23435848.437 7  23435851.562 7
  24877765.598 7 130733539.143 7 101870272.117 5  24877761.398 5  24877764.310 5
  24462082.181 7 128549163.605 7 100168184.446 6  24462078.223 6  24462082.028 6
  20669487.139 9 108618935.458 9  84638130.154 9  20669481.789 9  20669485.778 9
 09  6 30  0 27  0.0000000  0 11G22G 7G 3G 6G11G32G 8G16G14G18G19
  21966578.792 9 115435190.858 9  89949490.477 9  21966573.889 9  21966578.331 9
  24643237.710 7 129501101.353 7 100909948.577 6  24643233.973 6  24643238.511 6
  20249583.473 9 106412337.070 9  82918704.191 9  20249580.547 9  20249582.617 9
  21000335.805 9 110357583.618 9  85992933.519 9  21000332.988 9  21000334.997 9
  22677278.629 8 119169904.255 8  92859658.362 8  22677275.737 8  22677277.803 8
  23219728.711 8 122020501.987 8  95080903.102 6  23219726.173 6  23219727.597 6
  24834935.195 7 130508472.093 7 101694902.739 5  24834932.366 5  24834933.106 5
  23456026.511 8 123262280.459 8  96048531.980 7  23456022.054 7  23456024.758 7
  24864637.755 7 130664550.650 7 101816514.888 5  24864633.455 5  24864636.202 5
  24478384.545 8 128634829.340 8 100234936.935 6  24478379.620 6  24478383.388 6
  20664633.035 9 108593426.733 9  84618253.219 9  20664627.685 9  20664631.640 9
 09  6 30  0 27 30.0000000  0 11G22G 7G 3G 6G11G32G 8G16G14G18G19
  21976205.705 9 115485781.154 9  89988911.491 9  21976200.485 9  21976205.039 9
  24653582.137 7 129555460.885 7 100952306.638 6  24653578.773 6  24653582.392 6
  20254307.321 9 106437161.226 9  82938047.686 9  20254304.448 9  20254306.320 9
  21006984.850 9 110392524.317 9  86020160.036 9  21006981.948 9  21006983.933 9
  22663135.732 9 119095580.054 9  92801743.413 8  22663132.365 8  22663134.694 8
  23199335.010 8 121913332.162 8  94997394.161 7  23199332.387 7  23199334.595 7
  24835141.254 7 130509562.658 7 101695752.591 5  24835139.626 5  24835141.601 5
  23476228.627 8 123368444.457 8  96131257.122 7  23476224.947 7  23476227.298 7
  24851538.179 6 130595711.708 6 101762874.192 5  24851534.233 5  24851537.765 5
  24494733.135 8 128720744.820 8 100301884.092 6  24494729.443 6  24494732.747 6
  20659826.377 9 108568167.070 9  84598570.362 9  20659821.016 9  20659825.083 9
 09  6 30  0 28  0.0000000  0 11G22G 7G 3G 6G11G32G 8G16G14G18G19
  21985922.763 9 115536845.567 9  90028701.942 9  21985918.263 9  21985922.356 9
  24663982.680 7 129610114.430 7 100994893.815 6  24663979.446 6  24663981.900 6
  20259102.918 9 106462362.248 9  82957684.840 9  20259099.992 9  20259101.855 9
  21013692.890 9 110427775.192 9  86047628.252 9  21013689.843 9  21013692.008 9
  22649027.799 9 119021442.810 9  92743974.152 8  22649024.346 8  22649026.927 8
  23178973.970 8 121806333.115 8  94914018.286 7  23178970.900 7  23178973.323 7
  24835452.619 7 130511189.167 7 101697019.965 5  24835450.011 5  24835450.799 5
  23496459.392 8 123474757.617 8  96214098.493 7  23496455.476 7  23496457.968 7
  24838467.144 6 130527025.086 6 101709352.147 5  24838463.653 5  24838466.450 5
  24511129.580 8 128806907.808 8 100369024.145 6  24511125.181 6  24511127.916 6
  20655067.279 9 108543157.458 9  84579082.354 9  20655061.643 9  20655065.790 9
 09  6 30  0 28 30.0000000  0 11G22G 7G 3G 6G11G32G 8G16G14G18G19
  21995730.189 9 115588382.182 9  90068860.350 9  21995725.014 9  21995729.244 9
  24674437.777 7 129665058.936 7 101037707.724 6  24674435.230 6  24674437.184 6
  20263970.342 9 106487940.755 9  82977616.141 9  20263967.480 9  20263969.367 9
  21020459.952 9 110463336.670 9  86075338.491 9  21020456.874 9  21020458.947 9
  22634955.355 8 118947492.881 8  92686350.840 8  22634951.725 8  22634954.547 8
  23158645.739 8 121699507.567 8  94830777.625 6  23158642.444 6  23158644.943 6
  24835863.004 7 130513350.628 7 101698704.245 5  24835861.175 5  24835862.956 5
  23516717.869 8 123581216.867 8  96297053.735 6  23516714.030 6  23516716.672 6
  24825425.829 7 130458493.930 7 101655951.261 5  24825422.258 5  24825425.309 5
  24527572.441 7 128893316.195 7 100436355.364 6  24527567.850 6  24527571.821 6
  20650355.982 9 108518399.385 9  84559790.352 9  20650350.287 9  20650354.320 9
 09  6 30  0 29  0.0000000  0 11G22G 7G 3G 6G11G32G 8G16G14G18G19
  22005626.626 9 115640389.507 9  90109385.533 9  22005621.578 9  22005626.037 9
  24684948.645 7 129720291.682 7 101080746.220 5  24684945.674 5  24684947.472 5
  20268909.657 9 106513897.035 9  82997841.808 9  20268906.663 9  20268908.702 9
  21027286.110 9 110499209.104 9  86103291.030 9  21027283.430 9  21027285.424 9
  22620918.511 9 118873730.482 9  92628873.648 8  22620914.982 8  22620917.924 8
  23138350.572 8 121592858.201 8  94747674.239 6  23138347.842 6  23138349.931 6
  24836377.094 7 130516046.199 7 101700804.685 5  24836374.051 5  24836375.997 5
  23537003.696 8 123687819.599 8  96380120.764 6  23537000.073 6  23537002.196 6
  24812414.871 7 130390121.213 7 101602673.867 4  24812411.391 4  24812415.172 4
  24544061.243 7 128979967.478 7 100503875.783 5  24544056.640 5  24544061.169 5
  20645692.590 9 108493894.023 9  84540695.268 9  20645687.038 9  20645691.424 9
 09  6 30  0 29 30.0000000  0 11G22G 7G 3G 6G11G32G 8G16G14G18G19
  22015612.787 9 115692865.307 9  90150275.773 9  22015607.274 9  22015611.964 9
  24695513.496 7 129775809.659 7 101124006.966 6  24695510.179 6  24695512.187 6
  20273920.927 9 106540231.102 9  83018361.852 9  20273918.072 9  20273919.969 9
  21034171.918 9 110535392.820 9  86131486.127 9  21034168.652 9  21034171.157 9
  22606918.159 9 118800155.983 9  92571542.880 8  22606914.255 8  22606916.977 8
  23118090.557 8 121486387.804 8  94664710.314 7  23118087.116 7  23118089.455 7
  24836990.540 7 130519274.936 7 101703320.599 5  24836988.245 5  24836990.092 5
  23557316.557 8 123794563.355 8  96463297.674 6  23557312.591 6  23557315.570 6
  24799434.745 7 130321909.940 7 101549522.201 5  24799431.173 5  24799433.878 5
  24560597.154 7 129066859.540 7 100571583.851 6  24560592.498 6  24560596.162 6
  20641077.758 9 108469642.169 9  84521797.714 9  20641072.065 9  20641076.235 9
 09  6 30  0 30  0.0000000  0 11G22G 7G 3G 6G11G32G 8G16G14G18G19
  22025687.571 9 115745808.215 9  90191529.988 9  22025681.653 9  22025686.794 9
  24706131.759 7 129831609.985 7 101167487.758 6  24706128.704 6  24706130.966 6
  20279004.196 9 106566943.514 9  83039176.713 9  20279001.221 9  20279003.053 9
  21041116.670 9 110571888.080 9  86159923.993 9  21041113.590 9  21041115.767 9
  22592953.100 9 118726769.686 9  92514358.760 8  22592949.217 8  22592951.926 8
  23097864.650 8 121380099.121 8  94581887.938 7  23097861.230 7  23097863.194 7
  24837706.670 7 130523035.810 7 101706251.159 4  24837703.121 4  24837704.828 4
  23577655.545 8 123901445.979 8  96546582.800 6  23577652.088 6  23577654.652 6
  24786485.132 7 130253863.135 7 101496498.764 4  24786482.651 4  24786485.842 4
  24577177.293 7 129153989.710 7 100639477.507 5  24577173.251 5  24577176.376 5
  20636511.211 9 108445644.942 9  84503098.571 9  20636505.533 9  20636509.733 9
 09  6 30  0 30 30.0000000  0 11G22G 7G 3G 6G11G32G 8G16G14G18G19
  22035850.668 9 115799216.153 9  90233146.569 9  22035845.274 9  22035849.950 9
  24716803.637 7 129887689.873 7 101211186.380 6  24716799.391 6  24716802.951 6
  20284159.287 9 106594033.945 9  83060286.141 9  20284156.509 9  20284158.360 9
  21048120.786 9 110608695.305 9  86188604.950 9  21048117.778 9  21048119.892 9
  22579023.793 9 118653571.874 9  92457321.531 8  22579020.613 8  22579023.126 8
  23077673.448 8 121273994.825 8  94499209.301 7  23077670.820 7  23077672.278 7
  24838523.570 7 130527328.301 7 101709595.986 5  24838519.208 5  24838521.396 5
  23598020.535 8 124008464.650 8  96629973.925 7  23598016.913 7  23598020.000 7
  24773568.591 7 130185984.006 7 101443605.993 5  24773566.047 5  24773567.514 5
  24593801.879 7 129241355.852 7 100707554.993 6  24593797.974 6  24593801.035 6
  20631993.548 9 108421903.510 9  84484598.761 9  20631987.899 9  20631991.930 9
 09  6 30  0 31  0.0000000  0 11G22G 7G 3G 6G11G32G 8G16G14G18G19
  22046102.101 9 115853087.031 9  90275123.885 9  22046096.198 9  22046101.167 9
  24727527.604 7 129944046.480 7 101255100.646 6  24727524.012 6  24727527.797 6
  20289386.523 9 106621503.117 9  83081690.695 9  20289383.403 9  20289385.624 9
  21055184.350 9 110645814.955 9  86217529.356 9  21055181.456 9  21055183.615 9
  22565130.887 9 118580562.922 9  92400431.470 8  22565127.264 8  22565130.047 8
  23057518.078 8 121168077.713 8  94416676.481 7  23057515.382 7  23057516.940 7
  24839441.129 7 130532150.960 7 101713353.958 4  24839437.186 4  24839439.345 4
  23618410.981 8 124115616.824 8  96713469.111 7  23618407.227 7  23618410.202 7
  24760684.477 7 130118275.489 7 101390846.119 5  24760680.925 5  24760682.993 5
  24610472.423 7 129328955.998 7 100775814.866 6  24610467.439 6  24610470.573 6
  20627524.408 9 108398418.881 9  84466299.053 9  20627518.732 9  20627523.074 9
 09  6 30  0 31 30.0000000  0 11G22G 7G 3G 6G11G32G 8G16G14G18G19
  22056440.778 9 115907419.259 9  90317460.700 9  22056435.414 9  22056440.312 9
  24738304.172 7 130000676.861 7 101299228.235 5  24738300.644 5  24738303.472 5
  20294685.736 9 106649350.988 9  83103390.335 9  20294682.901 9  20294684.830 9
  21062307.494 9 110683247.117 9  86246697.270 9  21062304.474 9  21062306.689 9
  22551273.932 9 118507743.078 9  92343688.735 8  22551269.830 8  22551273.050 8
  23037398.959 8 121062350.436 8  94334291.586 7  23037395.939 7  23037397.736 7
  24840459.155 7 130537503.116 7 101717524.440 5  24840457.057 5  24840458.585 5
  23638826.606 8 124222900.076 8  96797066.424 7  23638822.477 7  23638825.142 7
  24747832.835 7 130050740.444 7 101338221.453 5  24747829.241 5  24747831.331 5
  24627185.514 7 129416787.556 7 100844255.066 6  24627180.827 6  24627183.647 6
  20623104.537 9 108375192.159 9  84448200.316 9  20623099.027 9  20623102.950 9
 09  6 30  0 32  0.0000000  0 11G22G 7G 3G 6G11G32G 8G16G14G18G19
  22066867.287 9 115962210.764 9  90360155.384 9  22066861.589 9  22066866.318 9
  24749131.329 7 130057578.220 7 101343566.965 6  24749128.807 6  24749130.869 6
  20300057.258 9 106677578.078 9  83125385.472 9  20300054.210 9  20300056.285 9
  21069490.247 9 110720992.219 9  86276109.026 9  21069487.179 9  21069489.501 9
  22537452.174 9 118435112.788 9  92287093.735 8  22537448.752 8  22537451.714 8
  23017316.891 8 120956815.773 8  94252056.783 7  23017312.930 7  23017315.236 7
  24841577.887 7 130543384.097 7 101722107.001 4  24841576.960 4  24841577.373 4
  23659266.458 8 124330312.087 8  96880764.076 7  23659262.299 7  23659265.227 7
  24735014.894 7 129983382.156 7 101285734.484 5  24735010.969 5  24735013.459 5
  24643943.046 7 129504848.192 7 100912873.732 6  24643938.120 6  24643941.850 6
  20618733.787 9 108352224.674 9  84430303.583 9  20618728.143 9  20618732.533 9
 09  6 30  0 32 30.0000000  0 11G22G 7G 3G 6G11G32G 8G16G14G18G19
  22077380.653 9 116017459.470 9  90403206.332 9  22077375.835 9  22077379.890 9
  24760011.151 7 130114747.661 7 101388114.568 6  24760007.429 6  24760010.422 6
  20305500.932 9 106706184.359 9  83147676.086 9  20305497.749 9  20305499.912 9
  21076732.380 9 110759050.484 9  86305764.814 9  21076729.725 9  21076731.621 9
  22523667.429 9 118362672.310 9  92230646.648 8  22523663.613 8  22523666.751 8
  22997270.614 8 120851476.398 8  94169974.142 7  22997267.802 7  22997269.497 7
  24842797.579 7 130549792.614 7 101727100.690 5  24842796.875 5  24842797.048 5
  23679729.947 8 124437850.016 8  96964559.845 7  23679726.149 7  23679729.016 7
  24722231.348 7 129916203.590 7 101233387.600 5  24722227.574 5  24722229.997 5
  24660743.089 7 129593135.561 7 100981669.095 5  24660738.628 5  24660741.999 5
  20614412.811 9 108329517.468 9  84412609.661 9  20614407.159 9  20614411.327 9
 09  6 30  0 33  0.0000000  0 11G22G 7G 3G 6G11G32G 8G16G14G18G19
  22087981.250 9 116073163.706 9  90446612.226 9  22087975.841 9  22087979.899 9
  24770940.414 7 130172182.222 7 101432868.773 5  24770936.884 5  24770940.336 5
  20311016.556 9 106735170.339 9  83170262.567 9  20311013.599 9  20311015.634 9
  21084034.303 9 110797422.347 9  86335664.969 9  21084031.626 9  21084033.280 9
  22509918.573 9 118290422.028 9  92174347.766 8  22509914.633 8  22509918.000 8
  22977263.597 8 120746335.135 8  94088045.899 7  22977260.350 7  22977261.582 7
  24844117.386 7 130556727.534 7 101732504.508 5  24844115.874 5  24844115.785 5
  23700217.396 8 124545511.888 8  97048452.220 7  23700213.565 7  23700216.280 7
  24709481.472 7 129849207.347 7 101181182.800 5  24709478.354 5  24709480.600 5
  24677586.464 7 129681647.342 7 101050639.298 5  24677582.895 5  24677585.760 5
  20610141.520 9 108307071.344 9  84395119.176 9  20610135.810 9  20610140.030 9
 09  6 30  0 33 30.0000000  0 11G22G 7G 3G 6G11G32G 8G16G14G18G19
  22098667.418 9 116129320.817 9  90490371.026 9  22098662.192 9  22098666.644 9
  24781919.585 7 130229878.653 7 101477827.008 6  24781916.348 6  24781919.793 6
  20316604.694 9 106764535.836 9  83193144.770 9  20316601.797 9  20316603.819 9
  21091395.821 9 110836108.025 9  86365809.656 9  21091393.103 9  21091395.176 9
  22496206.211 9 118218361.820 9  92118196.997 8  22496202.277 8  22496205.450 8
  22957293.586 8 120641394.526 8  94006274.007 7  22957290.924 7  22957292.271 7
  24845537.805 7 130564187.753 7 101738317.678 5  24845535.344 5  24845536.386 5
  23720728.114 8 124653295.021 8  97132439.076 7  23720724.183 7  23720726.925 7
  24696768.770 7 129782396.520 7 101129122.434 5  24696765.864 5  24696767.469 5
  24694472.281 7 129770381.719 7 101119782.922 6  24694468.852 6  24694470.914 6
  20605920.065 9 108284887.415 9  84377832.999 9  20605914.463 9  20605918.647 9
 09  6 30  0 34  0.0000000  0 11G22G 7G 3G 6G11G32G 8G16G14G18G19
  22109439.790 9 116185930.101 9  90534482.152 9  22109434.502 9  22109438.717 9
  24792947.623 7 130287834.938 7 101522987.753 5  24792944.489 5  24792948.334 5
  20322265.063 9 106794280.904 9  83216322.738 9  20322262.226 9  20322263.995 9
  21098817.483 9 110875107.716 9  86396199.028 9  21098814.400 9  21098816.507 9
  22482529.857 9 118146492.972 9  92062195.340 8  22482526.148 8  22482529.222 8
  22937362.847 8 120536657.343 8  93924660.605 7  22937360.456 7  22937361.763 7
  24847056.523 7 130572172.444 7 101744539.556 5  24847054.715 5  24847055.178 5
  23741261.203 8 124761196.838 8  97216518.407 7  23741256.962 7  23741259.940 7
  24684091.799 7 129715774.984 7 101077209.534 5  24684087.569 5  24684089.910 5
  24711399.572 7 129859335.735 7 101189097.730 5  24711395.782 5  24711398.484 5
  20601748.723 9 108262967.527 9  84360752.577 9  20601743.112 9  20601747.454 9
 09  6 30  0 34 30.0000000  0 11G22G 7G 3G 6G11G32G 8G16G14G18G19
  22120297.737 9 116242989.125 9  90578943.738 9  22120292.252 9  22120296.874 9
  24804025.751 7 130346047.587 7 101568348.226 5  24804022.722 5  24804025.593 5
  20327997.852 9 106824406.162 9  83239796.960 9  20327994.783 9  20327996.835 9
  21106298.473 9 110914421.838 9  86426833.410 9  21106295.483 9  21106297.801 9
  22468889.680 9 118074814.586 9  92006342.077 8  22468886.397 8  22468889.161 8
  22917471.350 8 120432126.366 8  93843207.898 7  22917469.334 7  22917470.027 7
  24848675.537 7 130580680.475 7 101751169.208 4  24848674.997 4  24848673.620 4
  23761816.392 8 124869214.833 8  97300688.275 7  23761812.569 7  23761814.708 7
  24671449.854 7 129649345.220 7 101025446.117 5  24671446.750 5  24671449.109 5
  24728368.869 7 129948507.321 7 101258582.054 6  24728364.102 6  24728366.795 6
  20597627.952 9 108241312.099 9  84343878.223 9  20597622.185 9  20597626.467 9
 09  6 30  0 35  0.0000000  0 11G22G 7G 3G 6G11G32G 8G16G14G18G19
  22131241.080 9 116300495.623 9  90623754.001 9  22131235.409 9  22131240.052 9
  24815151.028 7 130404513.765 7 101613906.265 5  24815148.083 5  24815150.303 5
  20333802.808 9 106854911.558 9  83263567.394 9  20333799.674 9  20333801.835 9
  21113839.752 9 110954050.709 9  86457713.049 9  21113836.782 9  21113838.811 9
  22455286.747 9 118003327.443 9  91950637.833 8  22455282.610 8  22455285.404 8
  22897619.568 8 120327804.253 8  93761917.912 7  22897616.815 7  22897618.237 7
  24850394.080 6 130589710.503 6 101758205.615 4  24850393.734 4  24850391.797 4
  23782393.019 8 124977346.477 8  97384946.693 7  23782389.294 7  23782391.961 7
  24658845.772 7 129583110.058 7 100973834.301 5  24658843.116 5  24658844.859 5
  24745377.372 7 130037894.414 7 101328234.305 5  24745373.991 5  24745376.721 5
  20593557.427 9 108219922.283 9  84327210.834 9  20593551.867 9  20593556.097 9
 09  6 30  0 35 30.0000000  0 11G22G 7G 3G 6G11G32G 8G16G14G18G19
  22142268.985 9 116358448.008 9  90668911.709 9  22142263.269 9  22142268.023 9
  24826324.356 7 130463230.324 7 101659659.411 5  24826320.924 5  24826324.133 5
  20339680.049 9 106885797.474 9  83287634.338 9  20339677.071 9  20339679.107 9
  21121440.692 9 110993994.404 9  86488838.005 9  21121437.802 9  21121439.849 9
  22441719.634 9 117932031.999 9  91895082.967 8  22441715.353 8  22441718.663 8
  22877807.683 8 120223693.685 8  93680792.778 7  22877805.129 7  22877806.695 7
  24852210.818 7 130599261.232 7 101765647.754 5  24852210.779 5  24852210.866 5
  23802990.939 8 125085589.326 8  97469291.773 6  23802987.242 6  23802989.724 6
  24646279.430 7 129517072.498 7 100922376.504 5  24646275.943 5  24646277.992 5
  24762428.816 7 130127494.534 7 101398052.524 5  24762424.262 5  24762427.331 5
  20589538.071 9 108198799.216 9  84310751.293 9  20589532.256 9  20589536.640 9
 09  6 30  0 36  0.0000000  0 11G22G 7G 3G 6G11G32G 8G16G14G18G19
  22153381.255 9 116416844.047 9  90714415.115 9  22153375.877 9  22153380.604 9
  24837546.021 7 130522194.525 7 101705605.527 5  24837541.258 5  24837544.320 5
  20345629.798 9 106917063.823 9  83311997.720 9  20345626.916 9  20345628.604 9
  21129101.693 9 111034253.301 9  86520208.570 9  21129098.848 9  21129100.708 9
  22428188.908 9 117860928.223 9  91839677.455 8  22428184.416 8  22428188.361 8
  22858037.046 8 120119797.370 8  93599834.579 7  22858034.186 7  22858035.942 7
  24854127.168 7 130609331.512 7 101773494.782 5  24854126.061 5  24854127.190 5
  23823610.139 8 125193941.001 8  97553721.640 6  23823605.782 6  23823608.814 6
  24633750.805 7 129451235.754 7 100871075.156 5  24633747.637 5  24633749.745 5
  24779518.544 7 130217305.364 7 101468034.960 5  24779515.252 5  24779517.794 5
  20585569.335 9 108177944.282 9  84294500.686 9  20585563.826 9  20585568.208 9
 09  6 30  0 36 30.0000000  0 11G22G 7G 3G 6G11G32G 8G16G14G18G19
  22164577.505 9 116475681.693 9  90760262.635 9  22164572.439 9  22164577.243 9
  24848813.305 7 130581403.428 7 101751742.289 5  24848808.422 5  24848810.990 5
  20351652.006 9 106948710.551 9  83336657.504 9  20351648.936 9  20351650.970 9
  21136822.890 9 111074827.556 9  86551824.871 9  21136820.261 9  21136822.024 9
  22414694.749 9 117790016.679 9  91784421.717 8  22414689.862 8  22414694.075 8
  22838307.172 8 120016117.990 8  93519045.437 7  22838304.861 7  22838306.326 7
  24856143.190 7 130619920.782 7 101781746.117 5  24856139.908 5  24856142.586 5
  23844248.191 8 125302398.985 8  97638234.371 6  23844244.491 6  23844247.663 6
  24621260.613 7 129385602.837 7 100819932.678 5  24621257.880 5  24621261.380 5
  24796648.721 7 130307324.529 7 101538179.702 5  24796644.643 5  24796648.345 5
  20581652.088 9 108157358.407 9  84278459.745 9  20581646.521 9  20581650.843 9
 09  6 30  0 37  0.0000000  0 11G22G 7G 3G 6G11G32G 8G16G14G18G19
  22175857.837 9 116534959.138 9  90806452.857 9  22175852.276 9  22175857.094 9
  24860125.423 7 130640854.468 7 101798067.780 6  24860123.015 6  24860125.775 6
  20357746.702 9 106980737.888 9  83361613.868 9  20357743.705 9  20357745.627 9
  21144603.983 9 111115717.471 9  86583687.130 9  21144601.027 9  21144603.020 9
  22401237.356 9 117719297.690 9  91729315.997 8  22401232.524 8  22401236.903 8
  22818619.601 8 119912658.337 8  93438427.530 7  22818617.482 7  22818618.750 7
  24858255.882 7 130631027.491 7 101790400.718 5  24858252.948 5  24858256.658 5
  23864907.222 7 125410960.737 7  97722827.949 6  23864902.777 6  23864906.643 6
  24608810.456 7 129320176.612 7 100768951.219 5  24608807.437 5  24608810.779 5
  24813818.097 7 130397549.854 7 101608485.156 6  24813814.931 6  24813817.043 6
  20577785.983 9 108137042.768 9  84262629.381 9  20577780.541 9  20577784.743 9
 09  6 30  0 37 30.0000000  0 11G22G 7G 3G 6G11G32G 8G16G14G18G19
  22187221.124 9 116594674.375 9  90852984.209 9  22187215.742 9  22187220.724 9
  24871484.515 7 130700544.142 7 101844579.191 5  24871481.436 5  24871484.045 5
  20363913.781 9 107013146.114 9  83386867.024 9  20363910.828 9  20363912.821 9
  21152445.199 9 111156923.317 9  86615795.573 9  21152442.074 9  21152444.220 9
  22387816.660 9 117648771.653 9  91674360.619 8  22387812.103 8  22387815.956 8
  22798974.280 8 119809421.029 8  93357982.855 7  22798971.854 7  22798973.089 7
  24860467.776 7 130642649.808 7 101799457.068 4  24860464.722 4  24860467.646 4
  23885585.220 7 125519623.801 7  97807500.484 5  23885581.190 5  23885584.835 5
  24596400.760 7 129254960.365 7 100718133.374 5  24596397.207 5  24596401.185 5
  24831026.573 7 130487979.106 7 101678949.491 5  24831023.656 5  24831025.574 5
  20573971.689 9 108116998.512 9  84247010.484 9  20573966.186 9  20573970.312 9
 09  6 30  0 38  0.0000000  0 11G22G 7G 3G 6G11G32G 8G16G14G18G19
  22198667.279 9 116654825.117 9  90899854.917 9  22198662.070 9  22198666.808 9
  24882887.516 7 130760469.624 7 101891274.342 5  24882885.294 5  24882887.427 5
  20370153.534 9 107045935.752 9  83412417.384 9  20370150.482 9  20370152.652 9
  21160346.547 9 111198445.301 9  86648150.368 9  21160343.539 9  21160345.306 9
  22374432.845 9 117578438.488 9  91619555.533 8  22374428.354 8  22374431.650 8
  22779372.106 8 119706408.718 8  93277713.509 7  22779368.949 7  22779370.448 7
  24862777.327 7 130654786.748 7 101808914.428 5  24862774.781 5  24862776.779 5
  23906281.726 7 125628385.660 7  97892250.024 5  23906277.643 5  23906280.762 5
  24584031.335 7 129189956.653 7 100667481.132 5  24584026.805 5  24584030.668 5
  24848273.259 7 130578609.828 7 101749570.826 5  24848269.436 5  24848273.126 5
  20570209.360 9 108097226.653 9  84231603.843 9  20570203.712 9  20570207.980 9
 09  6 30  0 38 30.0000000  0 11G22G 7G 3G 6G11G32G 8G16G14G18G19
  22210196.527 9 116715409.849 9  90947063.803 9  22210190.878 9  22210195.660 9
  24894335.616 7 130820627.983 7 101938151.035 5  24894333.172 5  24894334.977 5
  20376465.705 9 107079106.128 9  83438264.424 9  20376462.614 9  20376464.809 9
  21168307.952 9 111240283.610 9  86680751.642 9  21168304.685 9  21168306.963 9
  22361085.579 9 117508298.439 9  91564900.928 8  22361081.263 8  22361084.476 8
  22759812.291 8 119603623.996 8  93197621.477 7  22759809.524 7  22759811.064 7
  24865184.467 7 130667437.332 7 101818772.060 5  24865182.718 5  24865183.174 5
  23926996.305 7 125737243.752 7  97977074.539 5  23926993.043 5  23926995.414 5
  24571702.491 7 129125168.844 7 100616997.166 6  24571698.030 6  24571702.023 6
  24865557.746 7 130669439.508 7 101820347.111 4  24865552.866 4  24865556.955 4
  20566498.975 9 108077728.195 9  84216410.240 9  20566493.217 9  20566497.459 9
 09  6 30  0 39  0.0000000  0 11G22G 7G 3G 6G11G32G 8G16G14G18G19
  22221807.356 9 116776426.088 9  90994608.925 9  22221802.160 9  22221806.311 9
  24905827.248 7 130881016.585 7 101985207.091 5  24905823.986 5  24905827.324 5
  20382850.233 9 107112657.769 9  83464408.550 9  20382847.366 9  20382849.232 9
  21176329.727 9 111282438.447 9  86713599.559 9  21176326.718 9  21176328.617 9
  22347774.941 9 117438352.025 9  91510397.246 8  22347771.204 8  22347774.006 8
  22740297.032 8 119501069.727 8  93117709.040 7  22740294.526 7  22740295.425 7
  24867689.275 7 130680600.019 7 101829028.733 5  24867686.710 5  24867687.900 5
  23947728.980 7 125846195.519 7  98061971.997 5  23947725.653 5  23947729.090 5
  24559414.343 7 129060599.623 7 100566683.545 5  24559411.645 5  24559415.199 5
  24882878.888 6 130760466.382 6
  20562840.843 9 108058504.600 9  84201430.818 9  20562835.232 9  20562839.302 9
 09  6 30  0 39 30.0000000  0 11G22G 7G 3G 6G11G32G 8G16G14G18G19
  22233500.228 9 116837871.728 9  91042488.651 9  22233494.839 9  22233499.255 9
  24917362.806 7 130941632.204 7 102032440.071 5  24917357.080 5  24917361.129 5
  20389307.433 9 107146590.802 9  83490849.870 9  20389304.484 9  20389306.432 9
  21184411.767 9 111324910.094 9  86746694.342 9  21184409.126 9  21184410.757 9
  22334501.523 9 117368599.637 9  91456044.742 8  22334497.737 8  22334500.800 8
  22720826.113 8 119398748.511 8  93037978.227 7  22720823.706 7  22720824.800 7
  24870292.415 7 130694273.417 7 101839683.344 5  24870288.331 5  24870290.861 5
  23968479.509 7 125955238.727 7  98146940.719 5  23968475.240 5  23968478.388 5
  24547170.139 7 128996252.168 7 100516542.693 6  24547167.059 6  24547169.084 6
  24900238.393 6 130851687.713 6
  20559235.141 9 108039556.848 9  84186666.334 9  20559229.418 9  20559233.944 9
 09  6 30  0 40  0.0000000  0 11G22G 7G 3G 6G11G32G 8G16G14G18G19
  22245274.140 9 116899744.668 9  91090701.327 9  22245268.912 9  22245273.524 9
  24928939.736 6 131002471.761 6 102079847.507 5  24928935.158 5  24928937.863 5
  20395837.298 9 107180905.161 9  83517588.332 9  20395834.248 9  20395836.083 9
  21192554.180 9 111367698.622 9  86780036.048 9  21192551.594 9  21192553.245 9
  22321265.500 9 117299041.482 9  91401843.594 8  22321261.127 8  22321264.641 8
  22701399.640 8 119296662.948 8  92958431.007 7  22701397.060 7  22701398.899 7
  24872990.209 7 130708456.264 7 101850734.945 5  24872986.688 5  24872988.556 5
  23989246.040 6 126064370.518 6  98231978.509 5  23989242.600 5  23989244.705 5
  24534968.043 7 128932129.478 7 100466577.009 6  24534965.091 6  24534966.589 6
  24917634.271 6 130943101.371 6
  20555682.221 9 108020885.869 9  84172117.518 9  20555676.679 9  20555680.841 9
 09  6 30  0 40 30.0000000  0 11G22G 7G 3G 6G11G32G 8G16G14G18G19
  22257128.982 9 116962042.925 9  91139245.423 9  22257123.750 9  22257128.627 9
  24940558.020 7 131063532.405 7 102127427.196 5  24940554.585 5  24940556.933 5
  20402439.515 9 107215600.872 9  83544623.954 9  20402436.639 9  20402438.684 9
  21200757.109 9 111410804.354 9  86813624.929 9  21200754.008 9  21200756.180 9
  22308065.675 9 117229677.554 9  91347793.797 8  22308061.494 8  22308065.237 8
  22682019.011 8 119194815.760 8  92879069.549 8  22682016.731 8  22682017.931 8
  24875785.416 7 130723147.341 7 101862182.554 5  24875784.007 5  24875784.242 5
  24010030.225 6 126173589.008 6  98317083.736 5  24010027.451 5  24010027.285 5
  24522808.923 7 128868234.540 7 100416788.780 5  24522806.373 5  24522808.716 5
  24935065.703 6 131034705.258 6
  20552182.243 9 108002493.134 9  84157785.518 9  20552176.479 9  20552180.992 9
 09  6 30  0 41  0.0000000  0 11G22G 7G 3G 6G11G32G 8G16G14G18G19
  22269064.815 9 117024764.450 9  91188119.341 9  22269059.438 9  22269063.761 9
  24952219.795 7 131124811.152 7 102175176.845 5  24952216.383 5  24952216.968 5
  20409114.735 9 107250678.135 9  83571956.889 9  20409111.485 9  20409113.622 9
  21209020.243 9 111454227.382 9  86847461.059 9  21209017.303 9  21209019.387 9
  22294903.232 9 117160508.372 9  91293895.744 8  22294898.826 8  22294902.897 8
  22662683.912 8 119093209.685 8  92799895.977 8  22662681.672 8  22662683.110 8
  24878677.865 7 130738345.350 7 101874025.207 5  24878675.327 5  24878676.415 5
  24030829.312 6 126282891.262 6  98402254.381 4  24030825.669 4  24030828.242 4
  24510694.064 7 128804570.100 7 100367180.095 5  24510691.712 5  24510693.857 5
  24952532.561 5 131126496.702 5
  20548735.196 9 107984379.720 9  84143671.173 9  20548729.613 9  20548734.139 9
 09  6 30  0 41 30.0000000  0 12G22G 7G 3G 6G11G32G 8G16G14G18G19G28
  22281080.404 9 117087907.309 9  91237321.574 9  22281075.114 9  22281079.520 9
  24963921.296 7 131186304.931 7 102223094.045 5  24963918.796 5  24963920.484 5
  20415862.424 9 107286137.291 9  83599587.400 9  20415859.229 9  20415861.268 9
  21217343.691 9 111497967.893 9  86881544.578 9  21217340.851 9  21217342.813 9
  22281778.143 9 117091534.317 9  91240149.755 8  22281773.717 8  22281777.069 8
  22643395.235 8 118991847.239 8  92720912.227 8  22643393.019 8  22643394.249 8
  24881665.668 7 130754048.317 7 101886261.265 4  24881664.149 4  24881664.753 4
  24051644.499 6 126392274.928 6
  24498623.872 7 128741139.329 7 100317753.523 4  24498620.216 4  24498622.740 4
  24970035.485 5 131218473.635 5
  20545341.594 9 107966546.292 9  84129775.003 9  20545335.986 9  20545340.342 9
  26060655.819 5 136949674.68015
 09  6 30  0 42  0.0000000  0 11G22G 7G 3G 6G11G32G 8G16G14G19G28
  22293175.956 9 117151469.171 9  91286850.293 9  22293170.099 9  22293175.052 9
  24975662.693 7 131248011.027 7 102271176.702 5  24975660.596 5  24975663.711 5
  20422682.489 9 107321977.988 9  83627515.216 9  20422679.502 9  20422681.578 9
  21225727.845 9 111542026.039 9  86915875.598 9  21225724.974 9  21225726.835 9
  22268689.694 9 117022755.347 9  91186555.780 8  22268685.751 8  22268688.862 8
  22624153.536 8 118890731.180 8  92642120.498 8  22624151.636 8  22624152.232 8
  24884750.385 7 130770254.673 7 101898889.554 5  24884748.349 5  24884750.020 5
  24072475.209 6 126501737.503 6
  24486598.810 7 128677945.161 7 100268511.353 5  24486594.558 5  24486596.609 5
  20542001.601 9 107948994.279 9  84116098.115 9  20541996.030 9  20542000.126 9
  26041554.586 6 136849296.793 6
 09  6 30  0 42 30.0000000  0 11G22G 7G 3G 6G11G32G 8G16G14G19G28
  22305350.168 9 117215447.219 9  91336703.314 9  22305344.978 9  22305350.032 9
  24987446.305 7 131309926.238 7 102319422.285 4  24987442.649 4  24987445.918 4
  20429575.355 9 107358200.090 9  83655740.226 9  20429572.301 9  20429574.340 9
  21234172.238 9 111586402.115 9  86950454.351 9  21234169.486 9  21234171.331 9
  22255638.747 9 116954172.174 9  91133114.386 8  22255634.830 8  22255638.058 8
  22604959.209 8 118789864.021 8  92563522.719 8  22604957.376 8  22604958.025 8
  24887929.899 7 130786963.200 7 101911909.178 5  24887927.699 5  24887929.967 5
  24093319.983 5 126611276.285 5
  24474618.420 7 128614990.529 7 100219455.848 5  24474614.539 5  24474617.632 5
  20538715.401 9 107931724.774 9  84102641.365 9  20538709.759 9  20538714.051 9
  26022474.440 6 136749032.446 6
 09  6 30  0 43  0.0000000  0 11G22G 7G 3G 6G11G32G 8G16G14G19G28
  22317603.895 9 117279839.723 9  91386879.284 9  22317598.072 9  22317603.101 9
  24999266.704 7 131372047.679 7 102367828.592 6  24999264.241 6  24999267.244 6
  20436540.853 9 107394803.676 9  83684262.496 9  20436537.851 9  20436539.702 9
  21242677.307 9 111631096.128 9  86985280.849 9  21242674.636 9  21242676.370 9
  22242624.807 9 116885784.990 9  91079825.703 8  22242620.928 8  22242624.641 8
  22585812.773 8 118689248.444 8  92485120.986 8  22585810.840 8  22585811.467 8
  24891204.897 7 130804172.491 7 101925319.024 5  24891201.702 5  24891204.153 5
  24114176.487 5
  24462684.508 7 128552278.546 7 100170589.406 4  24462680.683 4  24462684.311 4
  20535483.177 9 107914738.902 9  84089405.624 9  20535477.446 9  20535481.561 9
  26003416.685 6 136648884.122 6
 09  6 30  0 43 30.0000000  0 11G22G 7G 3G 6G11G32G 8G16G14G19G28
  22329935.916 9 117344645.483 9  91437377.284 9  22329930.328 9  22329935.109 9
  25011126.957 7 131434372.148 7 102416393.023 5  25011124.148 5  25011127.045 5
  20443578.962 9 107431789.094 9  83713082.294 9  20443575.897 9  20443577.801 9
  21251242.810 9 111676108.175 9  87020355.170 9  21251240.053 9  21251241.895 9
  22229648.519 9 116817593.743 9  91026689.709 8  22229644.447 8  22229648.101 8
  22566714.490 8 118588887.137 8  92406917.366 8  22566712.345 8  22566713.438 8
  24894574.308 7 130821881.078 7 101939117.923 4  24894571.360 4  24894573.533 4
  24135047.377 5
  24450798.199 7 128489811.865 7 100121914.088 5  24450794.572 5  24450797.064 5
  20532305.100 9 107898038.073 9  84076391.997 9  20532299.397 9  20532303.673 9
  25984382.923 6 136548853.786 6
 09  6 30  0 44  0.0000000  0 11G22G 7G 3G 6G11G32G 8G16G14G19G28
  22342346.023 9 117409861.085 9  91488194.628 9  22342340.492 9  22342345.174 9
  25023025.348 7 131496896.930 7 102465113.622 6  25023022.675 6  25023024.951 6
  20450689.683 9 107469156.083 9  83742199.420 9  20450686.768 9  20450688.666 9
  21259868.779 9 111721438.445 9  87055677.462 9  21259865.875 9  21259867.835 9
  22216709.703 9 116749598.909 9  90973706.749 8  22216705.046 8  22216708.976 8
  22547665.435 8 118488782.711 8  92328913.915 8  22547663.042 8  22547664.319 8
  24898038.441 7 130840087.213 7 101953304.537 5  24898036.307 5  24898038.179 5
  24155934.491 4
  24438957.072 7 128427593.646 7 100073432.418 5  24438954.935 5  24438957.078 5
  20529181.395 9 107881623.015 9  84063601.039 9  20529175.815 9  20529179.945 9
  25965370.143 7 136448943.854 7
 09  6 30  0 44 30.0000000  0 10G22G 7G 3G 6G11G32G 8G14G19G28
  22354834.002 9 117475485.129 9  91539330.249 9  22354828.218 9  22354833.369 9
  25034961.064 7 131559618.954 7 102513987.962 5  25034958.276 5  25034961.668 5
  20457872.872 9 107506904.608 9  83771613.851 9  20457870.011 9  20457872.149 9
  21268555.618 9 111767087.100 9  87091247.841 9  21268552.448 9  21268554.482 9
  22203807.937 9 116681800.763 9  90920877.055 8  22203803.531 8  22203807.066 8
  22528665.470 8 118388937.788 8  92251112.667 8  22528662.832 8  22528664.540 8
  24901597.550 7 130858789.670 7 101967877.869 5  24901594.893 5  24901597.300 5
  24427166.088 7 128365626.812 7 100025146.613 4  24427161.384 4  24427164.282 4
  20526112.249 9 107865494.755 9  84051033.557 9  20526106.636 9  20526110.911 9
  25946380.873 6 136349156.481 6
 09  6 30  0 45  0.0000000  0 10G22G 7G 3G 6G11G32G 8G14G19G28
  22367399.162 9 117541515.513 9  91590782.496 9  22367393.682 9  22367398.339 9
  25046933.873 7 131622534.989 7 102563013.447 5  25046930.487 5  25046932.950 5
  20465128.909 9 107545034.996 9  83801325.838 9  20465125.926 9  20465127.831 9
  21277302.860 9 111813054.244 9  87127066.388 9  21277299.890 9  21277301.678 9
  22190943.775 9 116614199.568 9  90868200.830 8  22190939.420 8  22190942.932 8
  22509715.429 8 118289354.929 8  92173515.623 8  22509712.780 8  22509714.527 8
  24905250.606 7 130877986.840 7 101982836.697 5  24905248.960 5  24905250.127 5
  24415423.220 7 128303914.352 7  99977058.966 5  24415417.525 5  24415420.629 5
  20523098.009 9 107849654.902 9  84038690.818 9  20523092.436 9  20523096.601 9
  25927416.951 7 136249494.442 7
 09  6 30  0 45 30.0000000  0 10G22G 7G 3G 6G11G32G 8G14G19G28
  22380040.903 9 117607949.272 9  91642549.070 9  22380035.565 9  22380040.227 9
  25058943.154 7 131685642.205 7 102612187.895 5  25058938.313 5  25058941.546 5
  20472457.555 9 107583546.673 9  83831334.932 9  20472454.337 9  20472456.473 9
  21286110.531 9 111859339.983 9  87163133.199 9  21286107.687 9  21286109.728 9
  22178117.073 9 116546795.461 9  90815678.181 8  22178112.882 8  22178116.257 8
  22490815.758 8 118190036.772 8  92096124.826 8  22490813.045 8  22490814.611 8
  24908997.393 7 130897676.803 7 101998179.527 5  24908995.992 5  24908996.901 5
  24403728.179 7 128242458.975 7  99929171.634 5  24403724.327 5  24403726.424 5
  20520138.714 9 107834104.105 9  84026573.317 9  20520133.012 9  20520137.417 9
  25908475.900 7 136149959.739 7
 09  6 30  0 46  0.0000000  0 10G22G 7G 3G 6G11G32G 8G14G19G28
  22392759.379 9 117674784.782 9  91694628.684 9  22392754.186 9  22392758.553 9
  25070985.355 6 131748937.798 6 102661509.137 4  25070982.255 4  25070985.827 4
  20479858.642 9 107622439.904 9  83861641.341 9  20479855.709 9  20479857.550 9
  21294979.253 9 111905944.339 9  87199448.281 9  21294976.171 9  21294978.294 9
  22165328.474 9 116479588.640 9  90763309.242 8  22165324.033 8  22165327.276 8
  22471967.169 9 118090986.021 9  92018942.432 8  22471964.952 8  22471966.146 8
  24912838.021 7 130917858.063 7 102013905.144 5  24912836.277 5  24912837.773 5
  24392082.630 7 128181263.829 7  99881487.090 6  24392079.840 6  24392081.876 6
  20517234.941 9 107818843.765 9  84014682.141 9  20517228.950 9  20517233.301 9
  25889559.534 7 136050554.929 7
 09  6 30  0 46 30.0000000  0 11G22G 7G 3G 6G11G32G 8G14G20G19G28
  22405553.807 9 117742019.580 9  91747019.424 9  22405548.556 9  22405553.058 9
  25083066.905 6 131812418.554 6 102710974.632 4  25083062.950 4  25083064.431 4
  20487332.211 9 107661714.506 9  83892244.920 9  20487329.343 9  20487331.010 9
  21303908.199 9 111952867.538 9  87236011.806 9  21303905.399 9  21303907.055 9
  22152576.854 9 116412579.521 9  90711094.351 8  22152572.814 8  22152576.275 8
  22453169.712 8 117992205.122 8  91941970.318 8  22453167.439 8  22453168.803 8
  24916771.986 7 130938529.045 7 102030012.402 5  24916769.717 5  24916772.376 5
  24380487.498 7 128120331.848 7  99834007.616 5  24380485.502 5  24380487.476 5
  24947681.487 6 131100946.73516
  20514386.464 9 107803874.932 9  84003018.110 9  20514380.644 9  20514384.963 9
  25870667.743 7 135951282.103 7
 09  6 30  0 47  0.0000000  0 11G22G 7G 3G 6G11G32G 8G14G20G19G28
  22418423.728 9 117809651.856 9  91799719.893 9  22418418.398 9  22418422.995 9
  25095182.113 7 131876081.597 7 102760582.122 5  25095178.357 5  25095179.322 5
  20494878.400 9 107701370.419 9  83923145.626 9  20494875.538 9  20494877.303 9
  21312898.180 9 112000109.553 9  87272823.765 9  21312895.480 9  21312897.441 9
  22139863.002 9 116345768.300 9  90659033.679 8  22139859.168 8  22139862.542 8
  22434424.215 9 117893696.781 9  91865210.588 8  22434421.992 8  22434423.211 8
  24920798.539 7 130959687.926 7 102046499.790 4  24920796.057 4  24920797.634 4
  24368943.306 7 128059666.006 7  99786735.571 5  24368940.491 5  24368943.206 5
  24926020.528 7 130987118.025 7
  20511593.795 9 107789198.796 9  83991582.151 9  20511587.975 9  20511592.181 9
  25851802.605 7 135852143.669 7
 09  6 30  0 47 30.0000000  0 11G22G 7G 3G 6G11G32G 8G14G20G19G28
  22431368.727 9 117877679.374 9  91852728.337 9  22431363.761 9  22431368.151 9
  25107329.355 7 131939923.759 7 102810329.273 5  25107327.145 5  25107328.501 5
  20502497.323 9 107741407.721 9  83954343.525 9  20502494.496 9  20502496.647 9
  21321948.860 9 112047670.547 9  87309884.278 9  21321945.807 9  21321947.821 9
  22127187.310 9 116279155.432 9  90607127.545 9  22127183.104 9  22127186.567 9
  22415731.189 9 117795463.565 9  91788665.218 8  22415728.493 8  22415730.161 8
  24924917.688 7 130981332.964 7 102063366.026 5  24924916.804 5  24924915.973 5
  24357450.911 7 127999268.916 7  99739672.920 6  24357448.260 6  24357449.721 6
  24904365.158 7 130873317.831 7
  20508856.791 9 107774816.220 9  83980374.945 9  20508851.085 9  20508855.059 9
  25832963.143 7 135753142.053 7
 09  6 30  0 48  0.0000000  0 11G22G 7G 3G 6G11G32G 8G14G20G19G28
  22444388.750 9 117946099.336 9  91906042.589 9  22444383.484 9  22444387.840 9
  25119513.486 6 132003942.139 6 102860213.718 4  25119509.353 4  25119510.585 4
  20510188.873 9 107781826.561 9  83985838.728 9  20510185.772 9  20510187.876 9
  21331059.987 9 112095550.441 9  87347193.285 9  21331057.053 9  21331059.387 9
  22114548.697 9 116212741.140 9  90555376.142 9  22114544.733 9  22114548.487 9
  22397090.779 9 117697508.006 9  91712336.178 8  22397088.072 8  22397089.634 8
  24929128.390 7 131003462.416 7 102080609.718 5  24929127.955 5  24929126.577 5
  24346007.603 7 127939143.598 7  99692822.000 6  24346005.873 6  24346007.992 6
  24882714.720 7 130759548.246 7
  20506175.909 9 107760728.574 9  83969397.558 9  20506170.418 9  20506174.419 9
  25814150.396 7 135654279.683 7
 09  6 30  0 48 30.0000000  0 11G22G 7G 3G 6G11G32G 8G14G20G19G28
  22457482.810 9 118014909.541 9  91959660.921 9  22457477.514 9  22457482.351 9
  25131727.400 6 132068133.530 6 102910232.963 5  25131725.462 5  25131726.949 5
  20517952.755 9 107822626.467 9  84017630.862 9  20517949.975 9  20517951.915 9
  21340231.901 9 112143749.420 9  87384750.930 9  21340228.921 9  21340231.324 9
  22101948.356 9 116146525.421 9  90503779.475 8  22101944.169 8  22101947.488 8
  22378503.834 9 117599832.714 9  91636225.541 8  22378500.778 8  22378502.836 8
  24933431.776 7 131026074.480 7 102098229.508 5  24933429.911 5  24933429.373 5
  24334618.979 7 127879293.193 7  99646185.280 6  24334616.554 6  24334618.871 6
  24861071.306 7 130645811.756 7 101801914.60514  24861069.077 4  24861071.147 4
  20503551.409 9 107746936.790 9  83958650.713 9  20503545.813 9  20503549.917 9
  25795364.123 7 135555558.767 7
 09  6 30  0 49  0.0000000  0 11G22G 7G 3G 6G11G32G 8G14G20G19G28
  22470650.998 9 118084108.305 9  92013582.044 9  22470645.287 9  22470650.097 9
  25143975.653 7 132132495.104 7 102960384.782 5  25143972.472 5  25143974.752 5
  20525789.236 9 107863807.270 9  84049719.801 9  20525786.381 9  20525788.060 9
  21349464.740 9 112192267.468 9  87422557.199 9  21349461.426 9  21349463.811 9
  22089385.888 9 116080508.766 9  90452337.938 8  22089381.215 8  22089384.689 8
  22359970.481 9 117502440.287 9  91560335.338 8  22359967.624 8  22359969.560 8
  24937825.825 7 131049167.392 7 102116223.897 5  24937823.220 5  24937823.715 5
  24323282.095 7 127819720.269 7  99599764.815 6  24323280.094 6  24323282.916 6
  24839434.775 7 130532110.628 7 101713316.357 5  24839430.756 5  24839436.342 5
  20500983.570 9 107733442.343 9  83948135.557 9  20500977.808 9  20500982.141 9
  25776606.299 7 135456981.918 7
 09  6 30  0 49 30.0000000  0 11G22G 7G 3G 6G11G32G 8G14G20G19G28
  22483892.673 9 118153693.745 9  92067804.462 9  22483887.003 9  22483891.707 9
  25156255.718 7 132197023.847 7 103010666.802 5  25156251.732 5  25156255.166 5
  20533698.323 9 107905369.263 9  84082105.778 9  20533695.221 9  20533697.303 9
  21358757.930 9 112241104.673 9  87460612.161 9  21358755.161 9  21358757.282 9
  22076861.070 9 116014691.406 9  90401051.696 8  22076856.442 8  22076859.916 8
  22341491.841 9 117405333.274 9  91484667.532 8  22341488.970 8  22341490.668 8
  24942311.211 7 131072739.573 7 102134591.780 5  24942309.168 5  24942308.628 5
  24311999.679 7 127760427.827 7  99553562.932 6  24311996.822 6  24311999.978 6
  24817805.488 7 130418446.928 7 101624747.123 5  24817802.469 5  24817804.820 5
  20498472.474 9 107720246.154 9  83937852.811 9  20498466.743 9  20498470.945 9
  25757875.097 7 135358551.496 7
 09  6 30  0 50  0.0000000  0 11G22G 7G 3G 6G11G32G 8G14G20G19G28
  22497207.101 9 118223662.753 9  92122325.761 9  22497201.666 9  22497206.503 9
  25168566.299 7 132261716.666 7 103061076.763 5  25168563.120 5  25168565.940 5
  20541679.556 9 107947311.908 9  84114788.362 9  20541676.651 9  20541678.757 9
  21368112.234 9 112290261.087 9  87498915.850 9  21368109.509 9  21368111.140 9
  22064374.663 9 115949073.681 9  90349921.024 8  22064370.169 8  22064373.346 8
  22323067.658 9 117308514.215 9  91409224.093 8  22323065.053 8  22323066.645 8
  24946887.981 7 131096789.269 7 102153331.824 5  24946884.661 5  24946885.722 5
  24300771.451 7 127701418.664 7  99507581.788 6  24300768.027 6  24300770.713 6
  24796184.702 6 130304822.707 6
  20496018.172 9 107707349.029 9  83927803.105 9  20496012.315 9  20496016.714 9
  25739173.318 7 135260269.883 7
 09  6 30  0 50 30.0000000  0 11G22G 7G 3G 6G11G32G 8G14G20G19G28
  22510594.574 9 118294013.199 9  92177144.284 9  22510589.057 9  22510593.820 9
  25180907.784 7 132326570.950 7 103111612.488 6  25180904.723 6  25180907.104 6
  20549733.358 9 107989635.553 9  84147767.827 9  20549730.567 9  20549732.305 9
  21377526.926 9 112339736.661 9  87537468.234 9  21377524.450 9  21377526.086 9
  22051926.076 9 115883655.618 9  90298945.930 9  22051921.276 9  22051925.330 9
  22304698.898 8 117211985.643 8  91334007.032 8  22304696.503 8  22304697.523 8
  24951556.035 7 131121314.636 7 102172442.433 5  24951551.957 5  24951554.829 5
  24289597.485 7 127642695.776 7  99461823.688 6  24289593.860 6  24289596.200 6
  24774569.746 6 130191240.143 6
  20493620.805 9 107694752.137 9  83917987.339 9  20493615.535 9  20493619.467 9
  25720498.879 7 135162139.390 7
 09  6 30  0 51  0.0000000  0 11G22G 7G 3G 6G11G32G 8G14G20G19G28
  22524053.969 9 118364743.043 9  92232258.445 9  22524048.506 9  22524053.434 9
  25193279.215 7 132391583.203 7 103162271.322 5  25193276.200 5  25193278.112 5
  20557859.865 9 108032339.682 9  84181043.769 9  20557856.835 9  20557858.770 9
  21387002.501 9 112389531.555 9  87576269.444 9  21386999.883 9  21387001.386 9
  22039515.574 9 115818437.579 9  90248126.691 9  22039511.134 9  22039515.118 9
  22286386.163 9 117115750.119 9  91259018.355 8  22286383.501 8  22286384.437 8
  24956311.721 7 131146313.744 7 102191922.247 4  24956309.495 4  24956311.472 4
  24278477.563 7 127584262.302 7  99416291.108 6  24278473.594 6  24278477.007 6
  24752964.800 7 130077701.562 7
  20491281.319 9 107682457.066 9  83908406.765 9  20491275.649 9  20491279.826 9
  25701854.832 7 135064162.630 7
 09  6 30  0 51 30.0000000  0 11G22G 7G 3G 6G11G32G 8G14G20G19G28
  22537585.146 9 118435849.176 9  92287665.821 9  22537579.602 9  22537584.552 9
  25205680.104 7 132456750.751 7 103213051.162 5  25205676.087 5  25205678.286 5
  20566058.588 9 108075424.326 9  84214616.218 9  20566055.887 9  20566057.683 9
  21396538.930 9 112439645.537 9  87615319.295 9  21396536.188 9  21396538.122 9
  22027142.921 9 115753419.906 9  90197463.584 9  22027139.019 9  22027142.527 9
  22268129.109 9 117019810.125 9  91184259.937 8  22268126.322 8  22268127.939 8
  24961159.379 7 131171784.816 7 102211769.855 4  24961156.502 4  24961158.870 4
  24267413.787 7 127526120.793 7  99370986.073 6  24267409.637 6  24267412.337 6
  24731367.646 7 129964209.084 7
  20488999.254 9 107670464.580 9  83899061.965 9  20488993.673 9  20488997.730 9
  25683240.338 7 134966342.109 7
 09  6 30  0 52  0.0000000  0 11G22G 7G 3G 6G11G32G 8G14G20G19G28
  22551187.516 9 118507330.554 9  92343365.596 9  22551182.471 9  22551186.736 9
  25218109.731 6 132522070.329 6 103263949.437 5  25218106.335 5  25218108.460 5
  20574329.774 9 108118889.243 9  84248484.990 9  20574326.925 9  20574328.792 9
  21406136.223 9 112490078.797 9  87654617.943 9  21406133.228 9  21406135.533 9
  22014808.411 9 115688602.657 9  90146956.644 9  22014804.452 9  22014807.826 9
  22249929.314 9 116924168.274 9  91109733.845 8  22249926.824 8  22249928.018 8
  24966095.551 7 131197725.949 7 102231983.806 4  24966092.557 4  24966094.640 4
  24256405.275 7 127468273.773 7  99325910.509 6  24256401.679 6  24256403.735 6
  24709779.662 7 129850764.925 7
  20486775.112 9 107658775.758 9  83889953.788 9  20486769.312 9  20486773.585 9
  25664654.523 6 134868679.974 6
 09  6 30  0 52 30.0000000  0 11G22G 7G 3G 6G11G32G 8G14G20G19G28
  22564861.084 9 118579184.575 9  92399355.730 9  22564855.906 9  22564860.177 9
  25230567.331 7 132587538.804 7 103314963.759 5  25230565.334 5  25230566.633 5
  20582673.109 9 108162734.402 9  84282650.052 9  20582669.969 9  20582672.244 9
  21415793.930 9 112540831.129 9  87694165.210 9  21415791.122 9  21415793.222 9
  22002512.573 9 115623986.343 9  90096606.279 9  22002508.068 9  22002511.944 9
  22231786.191 9 116828827.073 9  91035442.058 8  22231784.135 8  22231785.081 8
  24971121.985 7 131224135.275 7 102252562.531 4  24971118.735 4  24971119.414 4
  24245454.166 7 127410724.277 7  99281066.768 6  24245451.000 6  24245452.764 6
  24688201.647 7 129737371.327 7
  20484608.677 9 107647392.112 9  83881083.417 9  20484603.115 9  20484607.529 9
  25646101.975 6 134771178.567 6
 09  6 30  0 53  0.0000000  0 11G22G 7G 3G 6G11G32G 8G14G20G19G28
  22578604.796 9 118651408.819 9  92455634.364 9  22578599.678 9  22578604.038 9
  25243053.634 7 132653153.299 7 103366091.832 5  25243052.067 5  25243053.753 5
  20591088.990 9 108206959.742 9  84317111.355 9  20591085.859 9  20591087.849 9
  21425512.402 9 112591902.717 9  87733961.245 9  21425509.672 9  21425511.743 9
  21990254.582 9 115559571.225 9  90046412.675 9  21990250.078 9  21990254.079 9
  22213701.161 9 116733788.975 9  90961386.457 8  22213698.760 8  22213699.988 8
  24976235.034 7 131251010.876 7 102273504.608 5  24976233.281 5  24976234.352 5
  24234560.468 7 127353475.568 7  99236457.373 6  24234556.883 6  24234559.461 6
  24666633.360 7 129624030.436 7
  20482500.751 9 107636314.057 9  83872451.167 9  20482495.091 9  20482499.394 9
  25627579.504 6 134673840.521 6
 09  6 30  0 53 30.0000000  0 11G22G 7G 3G 6G11G32G 8G14G20G19G28
  22592418.496 9 118724000.606 9  92512199.399 9  22592413.391 9  22592417.953 9
  25255567.600 6 132718910.874 6 103417331.496 5  25255564.817 5  25255566.727 5
  20599577.021 9 108251564.649 9  84351868.422 9  20599573.845 9  20599576.060 9
  21435292.020 9 112643293.369 9  87774005.906 9  21435289.025 9  21435290.956 9
  21978035.133 9 115495357.223 9  89996375.777 9  21978030.500 9  21978034.188 9
  22195674.273 9 116639056.481 9  90887568.962 8  22195671.470 8  22195672.901 8
  24981438.299 7 131278350.838 7 102294808.497 5  24981436.432 5  24981436.698 5
  24223723.473 7 127296529.949 7  99192084.152 6  24223720.147 6  24223723.319 6
  24645075.933 7 129510744.339 7
  20480450.952 9 107625543.140 9  83864058.243 9  20480445.122 9  20480449.576 9
  25609086.511 6 134576668.121 6
 09  6 30  0 54  0.0000000  0 11G22G 7G 3G 6G11G32G 8G14G20G19G28
  22606301.778 9 118796958.088 9  92569049.400 9  22606296.357 9  22606301.389 9
  25268106.433 6 132784808.580 6                                  25268107.005
  20608137.049 9 108296548.867 9  84386921.061 9  20608134.408 9  20608136.150 9
  21445131.988 9 112695003.215 9  87814299.288 9  21445128.966 9  21445131.049 9
  21965854.245 9 115431344.903 9  89946496.051 9  21965850.088 9  21965853.207 9
  22177705.504 9 116544632.123 9  90813991.617 9  22177703.581 9  22177704.566 9
  24986728.117 7 131306153.220 7 102316472.692 5  24986726.821 5  24986726.960 5
  24212945.526 7 127239890.527 7  99147949.548 6  24212941.482 6  24212944.985 6
  24623528.679 7 129397515.457 7
  20478459.981 9 107615080.319 9  83855905.394 9  20478454.220 9  20478458.555 9
  25590629.171 6 134479663.996 6